{"11":{"published":true,"country":"AE","admin1_code":"05","admin2_code":"","name":"Ras Al Khaimah City","ascii_name":"Ras Al Khaimah City","lat":"25.78953","lng":"55.9432","tags":[]},"17":{"published":true,"country":"AE","admin1_code":"03","admin2_code":"","name":"Dubai","ascii_name":"Dubai","lat":"25.07725","lng":"55.30927","tags":[]},"20":{"published":true,"country":"AE","admin1_code":"06","admin2_code":"","name":"Sharjah","ascii_name":"Sharjah","lat":"25.33737","lng":"55.41206","tags":[]},"25":{"published":true,"country":"AE","admin1_code":"02","admin2_code":"","name":"Ajman City","ascii_name":"Ajman City","lat":"25.40177","lng":"55.47878","tags":[]},"27":{"published":true,"country":"AE","admin1_code":"01","admin2_code":"","name":"Abu Dhabi","ascii_name":"Abu Dhabi","lat":"24.45118","lng":"54.39696","tags":[]},"30":{"published":true,"country":"AE","admin1_code":"01","admin2_code":"","name":"Musaffah","ascii_name":"Musaffah","lat":"24.35893","lng":"54.48267","tags":[]},"154":{"published":true,"country":"AF","admin1_code":"30","admin2_code":"1601","name":"Maz\u0101r-e Shar\u012bf","ascii_name":"Mazar-e Sharif","lat":"36.70904","lng":"67.11087","tags":[]},"169":{"published":true,"country":"AF","admin1_code":"24","admin2_code":"1401","name":"Kunduz","ascii_name":"Kunduz","lat":"36.72895","lng":"68.857","tags":[]},"195":{"published":true,"country":"AF","admin1_code":"23","admin2_code":"2401","name":"Kandah\u0101r","ascii_name":"Kandahar","lat":"31.61332","lng":"65.71013","tags":[]},"201":{"published":true,"country":"AF","admin1_code":"13","admin2_code":"101","name":"Kabul","ascii_name":"Kabul","lat":"34.52813","lng":"69.17233","tags":[]},"206":{"published":true,"country":"AF","admin1_code":"18","admin2_code":"801","name":"Jal\u0101l\u0101b\u0101d","ascii_name":"Jalalabad","lat":"34.42647","lng":"70.45153","tags":[]},"209":{"published":true,"country":"AF","admin1_code":"11","admin2_code":"2001","name":"Her\u0101t","ascii_name":"Herat","lat":"34.34817","lng":"62.19967","tags":[]},"220":{"published":true,"country":"AF","admin1_code":"08","admin2_code":"601","name":"Ghazni","ascii_name":"Ghazni","lat":"33.55391","lng":"68.42096","tags":[]},"222":{"published":true,"country":"AF","admin1_code":"36","admin2_code":"701","name":"Gardez","ascii_name":"Gardez","lat":"33.59744","lng":"69.22592","tags":[]},"281":{"published":true,"country":"AF","admin1_code":"30","admin2_code":"1606","name":"Balkh","ascii_name":"Balkh","lat":"36.75635","lng":"66.8972","tags":[]},"284":{"published":true,"country":"AF","admin1_code":"03","admin2_code":"1311","name":"Baghl\u0101n","ascii_name":"Baghlan","lat":"36.13068","lng":"68.70829","tags":[]},"513":{"published":true,"country":"AL","admin1_code":"43","admin2_code":"","name":"Elbasan","ascii_name":"Elbasan","lat":"41.1125","lng":"20.08222","tags":[]},"563":{"published":true,"country":"AL","admin1_code":"50","admin2_code":"28","name":"Tirana","ascii_name":"Tirana","lat":"41.3275","lng":"19.81889","tags":[]},"688":{"published":true,"country":"AL","admin1_code":"42","admin2_code":"03","name":"Durr\u00ebs","ascii_name":"Durres","lat":"41.32355","lng":"19.45469","tags":[]},"783":{"published":true,"country":"AM","admin1_code":"11","admin2_code":"","name":"Yerevan","ascii_name":"Yerevan","lat":"40.18111","lng":"44.51361","tags":[]},"895":{"published":true,"country":"AM","admin1_code":"06","admin2_code":"","name":"Vanadzor","ascii_name":"Vanadzor","lat":"40.80456","lng":"44.4939","tags":[]},"913":{"published":true,"country":"AM","admin1_code":"07","admin2_code":"","name":"Gyumri","ascii_name":"Gyumri","lat":"40.7942","lng":"43.84528","tags":[]},"1045":{"published":true,"country":"AO","admin1_code":"05","admin2_code":"","name":"N\u2019dalatando","ascii_name":"N'dalatando","lat":"-9.29782","lng":"14.91162","tags":[]},"1048":{"published":true,"country":"AO","admin1_code":"20","admin2_code":"","name":"Luanda","ascii_name":"Luanda","lat":"-8.83682","lng":"13.23432","tags":[]},"1059":{"published":true,"country":"AO","admin1_code":"09","admin2_code":"","name":"Lubango","ascii_name":"Lubango","lat":"-14.91717","lng":"13.4925","tags":[]},"1061":{"published":true,"country":"AO","admin1_code":"01","admin2_code":"","name":"Lobito","ascii_name":"Lobito","lat":"-12.3644","lng":"13.53601","tags":[]},"1062":{"published":true,"country":"AO","admin1_code":"02","admin2_code":"","name":"Cuito","ascii_name":"Cuito","lat":"-12.38333","lng":"16.93333","tags":[]},"1063":{"published":true,"country":"AO","admin1_code":"08","admin2_code":"","name":"Huambo","ascii_name":"Huambo","lat":"-12.77611","lng":"15.73917","tags":[]},"1070":{"published":true,"country":"AO","admin1_code":"01","admin2_code":"","name":"Benguela","ascii_name":"Benguela","lat":"-12.57626","lng":"13.40547","tags":[]},"1083":{"published":true,"country":"AR","admin1_code":"07","admin2_code":"02008","name":"Villa Lugano","ascii_name":"Villa Lugano","lat":"-34.67907","lng":"-58.47263","tags":[]},"1098":{"published":true,"country":"AR","admin1_code":"01","admin2_code":"06791","name":"Tandil","ascii_name":"Tandil","lat":"-37.32167","lng":"-59.13316","tags":[]},"1148":{"published":true,"country":"AR","admin1_code":"03","admin2_code":"22140","name":"Resistencia","ascii_name":"Resistencia","lat":"-27.46056","lng":"-58.98389","tags":[]},"1152":{"published":true,"country":"AR","admin1_code":"01","admin2_code":"06658","name":"Quilmes","ascii_name":"Quilmes","lat":"-34.72904","lng":"-58.26374","tags":[]},"1169":{"published":true,"country":"AR","admin1_code":"14","admin2_code":"54028","name":"Posadas","ascii_name":"Posadas","lat":"-27.36708","lng":"-55.89608","tags":[]},"1173":{"published":true,"country":"AR","admin1_code":"01","admin2_code":"06638","name":"Pilar","ascii_name":"Pilar","lat":"-34.45866","lng":"-58.9142","tags":[]},"1194":{"published":true,"country":"AR","admin1_code":"01","admin2_code":"06568","name":"Mor\u00f3n","ascii_name":"Moron","lat":"-34.6509","lng":"-58.61956","tags":[]},"1200":{"published":true,"country":"AR","admin1_code":"01","admin2_code":"06539","name":"Merlo","ascii_name":"Merlo","lat":"-34.66627","lng":"-58.72927","tags":[]},"1208":{"published":true,"country":"AR","admin1_code":"01","admin2_code":"06357","name":"Mar del Plata","ascii_name":"Mar del Plata","lat":"-38.00042","lng":"-57.5562","tags":[]},"1234":{"published":true,"country":"AR","admin1_code":"01","admin2_code":"06441","name":"La Plata","ascii_name":"La Plata","lat":"-34.92145","lng":"-57.95453","tags":[]},"1282":{"published":true,"country":"AR","admin1_code":"09","admin2_code":"34014","name":"Formosa","ascii_name":"Formosa","lat":"-26.18489","lng":"-58.17313","tags":[]},"1306":{"published":true,"country":"AR","admin1_code":"06","admin2_code":"18021","name":"Corrientes","ascii_name":"Corrientes","lat":"-27.46784","lng":"-58.8344","tags":[]},"1309":{"published":true,"country":"AR","admin1_code":"08","admin2_code":"30015","name":"Concordia","ascii_name":"Concordia","lat":"-31.39296","lng":"-58.02089","tags":[]},"1345":{"published":true,"country":"AR","admin1_code":"07","admin2_code":"","name":"Buenos Aires","ascii_name":"Buenos Aires","lat":"-34.61315","lng":"-58.37723","tags":[]},"1354":{"published":true,"country":"AR","admin1_code":"01","admin2_code":"06091","name":"Berazategui","ascii_name":"Berazategui","lat":"-34.76531","lng":"-58.21278","tags":[]},"1357":{"published":true,"country":"AR","admin1_code":"07","admin2_code":"02013","name":"Belgrano","ascii_name":"Belgrano","lat":"-34.5627","lng":"-58.45829","tags":[]},"1506":{"published":true,"country":"AR","admin1_code":"22","admin2_code":"86049","name":"Santiago del Estero","ascii_name":"Santiago del Estero","lat":"-27.79511","lng":"-64.26149","tags":[]},"1513":{"published":true,"country":"AR","admin1_code":"11","admin2_code":"42021","name":"Santa Rosa","ascii_name":"Santa Rosa","lat":"-36.61667","lng":"-64.28333","tags":[]},"1519":{"published":true,"country":"AR","admin1_code":"21","admin2_code":"82063","name":"Santa Fe","ascii_name":"Santa Fe","lat":"-31.64881","lng":"-60.70868","tags":[]},"1523":{"published":true,"country":"AR","admin1_code":"10","admin2_code":"38021","name":"San Salvador de Jujuy","ascii_name":"San Salvador de Jujuy","lat":"-24.19457","lng":"-65.29712","tags":[]},"1525":{"published":true,"country":"AR","admin1_code":"13","admin2_code":"50105","name":"San Rafael","ascii_name":"San Rafael","lat":"-34.61772","lng":"-68.33007","tags":[]},"1529":{"published":true,"country":"AR","admin1_code":"01","admin2_code":"06763","name":"San Nicol\u00e1s de los Arroyos","ascii_name":"San Nicolas de los Arroyos","lat":"-33.33425","lng":"-60.2108","tags":[]},"1530":{"published":true,"country":"AR","admin1_code":"24","admin2_code":"90084","name":"San Miguel de Tucum\u00e1n","ascii_name":"San Miguel de Tucuman","lat":"-26.82414","lng":"-65.2226","tags":[]},"1534":{"published":true,"country":"AR","admin1_code":"19","admin2_code":"74056","name":"San Luis","ascii_name":"San Luis","lat":"-33.29501","lng":"-66.33563","tags":[]},"1537":{"published":true,"country":"AR","admin1_code":"18","admin2_code":"70028","name":"San Juan","ascii_name":"San Juan","lat":"-31.5375","lng":"-68.53639","tags":[]},"1546":{"published":true,"country":"AR","admin1_code":"02","admin2_code":"10049","name":"Catamarca","ascii_name":"Catamarca","lat":"-28.46957","lng":"-65.78524","tags":[]},"1566":{"published":true,"country":"AR","admin1_code":"17","admin2_code":"66028","name":"Salta","ascii_name":"Salta","lat":"-24.7859","lng":"-65.41166","tags":[]},"1575":{"published":true,"country":"AR","admin1_code":"21","admin2_code":"82084","name":"Rosario","ascii_name":"Rosario","lat":"-32.94682","lng":"-60.63932","tags":[]},"1589":{"published":true,"country":"AR","admin1_code":"05","admin2_code":"14098","name":"R\u00edo Cuarto","ascii_name":"Rio Cuarto","lat":"-33.13067","lng":"-64.34992","tags":[]},"1639":{"published":true,"country":"AR","admin1_code":"08","admin2_code":"30084","name":"Paran\u00e1","ascii_name":"Parana","lat":"-31.73271","lng":"-60.52897","tags":[]},"1657":{"published":true,"country":"AR","admin1_code":"15","admin2_code":"58035","name":"Neuqu\u00e9n","ascii_name":"Neuquen","lat":"-38.95161","lng":"-68.0591","tags":[]},"1676":{"published":true,"country":"AR","admin1_code":"13","admin2_code":"50028","name":"Mendoza","ascii_name":"Mendoza","lat":"-32.89084","lng":"-68.82717","tags":[]},"1736":{"published":true,"country":"AR","admin1_code":"12","admin2_code":"46014","name":"La Rioja","ascii_name":"La Rioja","lat":"-29.41105","lng":"-66.85067","tags":[]},"1909":{"published":true,"country":"AR","admin1_code":"05","admin2_code":"14014","name":"C\u00f3rdoba","ascii_name":"Cordoba","lat":"-31.4135","lng":"-64.18105","tags":[]},"1914":{"published":true,"country":"AR","admin1_code":"04","admin2_code":"26021","name":"Comodoro Rivadavia","ascii_name":"Comodoro Rivadavia","lat":"-45.86413","lng":"-67.49656","tags":[]},"1999":{"published":true,"country":"AR","admin1_code":"01","admin2_code":"06056","name":"Bah\u00eda Blanca","ascii_name":"Bahia Blanca","lat":"-38.71959","lng":"-62.27243","tags":[]},"2042":{"published":true,"country":"AR","admin1_code":"07","admin2_code":"02003","name":"Balvanera","ascii_name":"Balvanera","lat":"-34.61032","lng":"-58.39766","tags":[]},"2051":{"published":true,"country":"AR","admin1_code":"01","admin2_code":"06760","name":"San Miguel","ascii_name":"San Miguel","lat":"-34.54335","lng":"-58.71229","tags":[]},"2063":{"published":true,"country":"AR","admin1_code":"01","admin2_code":"06412","name":"Jos\u00e9 C. Paz","ascii_name":"Jose C. Paz","lat":"-34.51541","lng":"-58.76813","tags":[]},"2167":{"published":true,"country":"AT","admin1_code":"09","admin2_code":"900","name":"Vienna","ascii_name":"Vienna","lat":"48.20849","lng":"16.37208","tags":[]},"2478":{"published":true,"country":"AT","admin1_code":"09","admin2_code":"900","name":"Simmering","ascii_name":"Simmering","lat":"48.18333","lng":"16.43333","tags":[]},"2697":{"published":true,"country":"AT","admin1_code":"05","admin2_code":"501","name":"Salzburg","ascii_name":"Salzburg","lat":"47.79941","lng":"13.04399","tags":[]},"2931":{"published":true,"country":"AT","admin1_code":"09","admin2_code":"900","name":"Ottakring","ascii_name":"Ottakring","lat":"48.21667","lng":"16.3","tags":[]},"3215":{"published":true,"country":"AT","admin1_code":"04","admin2_code":"401","name":"Linz","ascii_name":"Linz","lat":"48.30639","lng":"14.28611","tags":[]},"3441":{"published":true,"country":"AT","admin1_code":"07","admin2_code":"701","name":"Innsbruck","ascii_name":"Innsbruck","lat":"47.26266","lng":"11.39454","tags":[]},"3642":{"published":true,"country":"AT","admin1_code":"06","admin2_code":"601","name":"Graz","ascii_name":"Graz","lat":"47.06667","lng":"15.45","tags":[]},"3768":{"published":true,"country":"AT","admin1_code":"09","admin2_code":"900","name":"Floridsdorf","ascii_name":"Floridsdorf","lat":"48.25","lng":"16.4","tags":[]},"4193":{"published":true,"country":"AT","admin1_code":"09","admin2_code":"900","name":"Favoriten","ascii_name":"Favoriten","lat":"48.16116","lng":"16.38233","tags":[]},"4303":{"published":true,"country":"AT","admin1_code":"09","admin2_code":"900","name":"Donaustadt","ascii_name":"Donaustadt","lat":"48.2333","lng":"16.46002","tags":[]},"4380":{"published":true,"country":"AU","admin1_code":"08","admin2_code":"57490","name":"Rockingham","ascii_name":"Rockingham","lat":"-32.27682","lng":"115.72978","tags":[]},"4401":{"published":true,"country":"AU","admin1_code":"08","admin2_code":"57080","name":"Perth","ascii_name":"Perth","lat":"-31.95224","lng":"115.8614","tags":[]},"4522":{"published":true,"country":"AU","admin1_code":"03","admin2_code":"71000","name":"Darwin","ascii_name":"Darwin","lat":"-12.46113","lng":"130.84185","tags":[]},"4582":{"published":true,"country":"AU","admin1_code":"05","admin2_code":"40070","name":"Adelaide","ascii_name":"Adelaide","lat":"-34.92866","lng":"138.59863","tags":[]},"4771":{"published":true,"country":"AU","admin1_code":"04","admin2_code":"37010","name":"Townsville","ascii_name":"Townsville","lat":"-19.26639","lng":"146.80569","tags":[]},"4775":{"published":true,"country":"AU","admin1_code":"04","admin2_code":"36910","name":"Toowoomba","ascii_name":"Toowoomba","lat":"-27.56056","lng":"151.95386","tags":[]},"4833":{"published":true,"country":"AU","admin1_code":"02","admin2_code":"","name":"Sydney","ascii_name":"Sydney","lat":"-33.86785","lng":"151.20732","tags":[]},"5087":{"published":true,"country":"AU","admin1_code":"02","admin2_code":"15900","name":"Newcastle","ascii_name":"Newcastle","lat":"-32.92953","lng":"151.7801","tags":[]},"5207":{"published":true,"country":"AU","admin1_code":"07","admin2_code":"24600","name":"Melbourne","ascii_name":"Melbourne","lat":"-37.814","lng":"144.96332","tags":[]},"5282":{"published":true,"country":"AU","admin1_code":"06","admin2_code":"64010","name":"Launceston","ascii_name":"Launceston","lat":"-41.43876","lng":"147.13467","tags":[]},"5388":{"published":true,"country":"AU","admin1_code":"06","admin2_code":"62810","name":"Hobart","ascii_name":"Hobart","lat":"-42.87936","lng":"147.32941","tags":[]},"5455":{"published":true,"country":"AU","admin1_code":"04","admin2_code":"33430","name":"Gold Coast","ascii_name":"Gold Coast","lat":"-28.00029","lng":"153.43088","tags":[]},"5484":{"published":true,"country":"AU","admin1_code":"07","admin2_code":"22750","name":"Geelong","ascii_name":"Geelong","lat":"-38.14711","lng":"144.36069","tags":[]},"5679":{"published":true,"country":"AU","admin1_code":"02","admin2_code":"18450","name":"Wollongong","ascii_name":"Wollongong","lat":"-34.424","lng":"150.89345","tags":[]},"5721":{"published":true,"country":"AU","admin1_code":"01","admin2_code":"","name":"Canberra","ascii_name":"Canberra","lat":"-35.28346","lng":"149.12807","tags":[]},"5737":{"published":true,"country":"AU","admin1_code":"04","admin2_code":"32080","name":"Cairns","ascii_name":"Cairns","lat":"-16.92366","lng":"145.76613","tags":[]},"5775":{"published":true,"country":"AU","admin1_code":"04","admin2_code":"31000","name":"Brisbane","ascii_name":"Brisbane","lat":"-27.46794","lng":"153.02809","tags":[]},"5842":{"published":true,"country":"AU","admin1_code":"07","admin2_code":"22620","name":"Bendigo","ascii_name":"Bendigo","lat":"-36.75818","lng":"144.28024","tags":[]},"6184":{"published":true,"country":"AU","admin1_code":"04","admin2_code":"34590","name":"Logan City","ascii_name":"Logan City","lat":"-27.63917","lng":"153.10944","tags":[]},"8194":{"published":true,"country":"AZ","admin1_code":"29","admin2_code":"","name":"Lankaran","ascii_name":"Lankaran","lat":"38.75428","lng":"48.85062","tags":[]},"8232":{"published":true,"country":"AZ","admin1_code":"68","admin2_code":"","name":"Yevlakh","ascii_name":"Yevlakh","lat":"40.61832","lng":"47.15014","tags":[]},"8243":{"published":true,"country":"AZ","admin1_code":"54","admin2_code":"","name":"Sumqay\u0131t","ascii_name":"Sumqayit","lat":"40.58972","lng":"49.66861","tags":[]},"8301":{"published":true,"country":"AZ","admin1_code":"20","admin2_code":"","name":"Ganja","ascii_name":"Ganja","lat":"40.68278","lng":"46.36056","tags":[]},"8325":{"published":true,"country":"AZ","admin1_code":"09","admin2_code":"","name":"Baku","ascii_name":"Baku","lat":"40.37767","lng":"49.89201","tags":[]},"8352":{"published":true,"country":"BA","admin1_code":"01","admin2_code":"","name":"Zenica","ascii_name":"Zenica","lat":"44.20169","lng":"17.90397","tags":[]},"8375":{"published":true,"country":"BA","admin1_code":"01","admin2_code":"","name":"Tuzla","ascii_name":"Tuzla","lat":"44.53842","lng":"18.66709","tags":[]},"8404":{"published":true,"country":"BA","admin1_code":"01","admin2_code":"3343737","name":"Sarajevo","ascii_name":"Sarajevo","lat":"43.84864","lng":"18.35644","tags":[]},"8455":{"published":true,"country":"BA","admin1_code":"01","admin2_code":"3343740","name":"Mostar","ascii_name":"Mostar","lat":"43.34333","lng":"17.80806","tags":[]},"8576":{"published":true,"country":"BA","admin1_code":"02","admin2_code":"","name":"Banja Luka","ascii_name":"Banja Luka","lat":"44.77842","lng":"17.19386","tags":[]},"8626":{"published":true,"country":"BD","admin1_code":"81","admin2_code":"3033","name":"Tungi","ascii_name":"Tungi","lat":"23.89154","lng":"90.40232","tags":[]},"8627":{"published":true,"country":"BD","admin1_code":"86","admin2_code":"6091","name":"Sylhet","ascii_name":"Sylhet","lat":"24.89904","lng":"91.87198","tags":[]},"8629":{"published":true,"country":"BD","admin1_code":"H","admin2_code":"3039","name":"Jam\u0101lpur","ascii_name":"Jamalpur","lat":"24.91965","lng":"89.94812","tags":[]},"8630":{"published":true,"country":"BD","admin1_code":"83","admin2_code":"5010","name":"Shibganj","ascii_name":"Shibganj","lat":"25.00146","lng":"89.32266","tags":[]},"8632":{"published":true,"country":"BD","admin1_code":"82","admin2_code":"4087","name":"S\u0101tkhira","ascii_name":"Satkhira","lat":"22.70817","lng":"89.07185","tags":[]},"8633":{"published":true,"country":"BD","admin1_code":"83","admin2_code":"5088","name":"Sirajganj","ascii_name":"Sirajganj","lat":"24.45771","lng":"89.70802","tags":[]},"8635":{"published":true,"country":"BD","admin1_code":"81","admin2_code":"3068","name":"Narsingdi","ascii_name":"Narsingdi","lat":"23.92298","lng":"90.71768","tags":[]},"8637":{"published":true,"country":"BD","admin1_code":"83","admin2_code":"5088","name":"Sh\u0101hz\u0101dpur","ascii_name":"Shahzadpur","lat":"24.17687","lng":"89.5988","tags":[]},"8639":{"published":true,"country":"BD","admin1_code":"83","admin2_code":"5081","name":"R\u0101jsh\u0101hi","ascii_name":"Rajshahi","lat":"24.374","lng":"88.60114","tags":[]},"8645":{"published":true,"country":"BD","admin1_code":"81","admin2_code":"3067","name":"N\u0101r\u0101yanganj","ascii_name":"Narayanganj","lat":"23.61352","lng":"90.50298","tags":[]},"8647":{"published":true,"country":"BD","admin1_code":"81","admin2_code":"3093","name":"N\u0101garpur","ascii_name":"Nagarpur","lat":"24.05783","lng":"89.87696","tags":[]},"8649":{"published":true,"country":"BD","admin1_code":"H","admin2_code":"3061","name":"Mymensingh","ascii_name":"Mymensingh","lat":"24.75636","lng":"90.40646","tags":[]},"8658":{"published":true,"country":"BD","admin1_code":"84","admin2_code":"2019","name":"Comilla","ascii_name":"Comilla","lat":"23.46186","lng":"91.18503","tags":[]},"8659":{"published":true,"country":"BD","admin1_code":"87","admin2_code":"5585","name":"Rangpur","ascii_name":"Rangpur","lat":"25.74664","lng":"89.25166","tags":[]},"8660":{"published":true,"country":"BD","admin1_code":"82","admin2_code":"4050","name":"Kushtia","ascii_name":"Kushtia","lat":"23.9028","lng":"89.11943","tags":[]},"8671":{"published":true,"country":"BD","admin1_code":"81","admin2_code":"3026","name":"Dhaka","ascii_name":"Dhaka","lat":"23.7104","lng":"90.40744","tags":[]},"8679":{"published":true,"country":"BD","admin1_code":"81","admin2_code":"3048","name":"Bhairab B\u0101z\u0101r","ascii_name":"Bhairab Bazar","lat":"24.0524","lng":"90.9764","tags":[]},"8684":{"published":true,"country":"BD","admin1_code":"82","admin2_code":"4001","name":"Bagerhat","ascii_name":"Bagerhat","lat":"22.65657","lng":"89.79123","tags":[]},"8688":{"published":true,"country":"BD","admin1_code":"81","admin2_code":"3067","name":"Son\u0101rgaon","ascii_name":"Sonargaon","lat":"23.65","lng":"90.61667","tags":[]},"8694":{"published":true,"country":"BD","admin1_code":"83","admin2_code":"5064","name":"P\u0101r Naogaon","ascii_name":"Par Naogaon","lat":"24.80418","lng":"88.94875","tags":[]},"8701":{"published":true,"country":"BD","admin1_code":"81","admin2_code":"3029","name":"Far\u012bdpur","ascii_name":"Faridpur","lat":"23.60612","lng":"89.84064","tags":[]},"8702":{"published":true,"country":"BD","admin1_code":"87","admin2_code":"5527","name":"Din\u0101jpur","ascii_name":"Dinajpur","lat":"25.62745","lng":"88.63779","tags":[]},"8704":{"published":true,"country":"BD","admin1_code":"84","admin2_code":"2015","name":"Chattogram","ascii_name":"Chattogram","lat":"22.3384","lng":"91.83168","tags":[]},"8709":{"published":true,"country":"BD","admin1_code":"84","admin2_code":"2022","name":"Cox\u2019s B\u0101z\u0101r","ascii_name":"Cox's Bazar","lat":"21.43973","lng":"92.00955","tags":[]},"8710":{"published":true,"country":"BD","admin1_code":"82","admin2_code":"4047","name":"Khulna","ascii_name":"Khulna","lat":"22.80979","lng":"89.56439","tags":[]},"8712":{"published":true,"country":"BD","admin1_code":"85","admin2_code":"1006","name":"Barishal","ascii_name":"Barishal","lat":"22.70497","lng":"90.37013","tags":[]},"8713":{"published":true,"country":"BD","admin1_code":"82","admin2_code":"4041","name":"Jessore","ascii_name":"Jessore","lat":"23.16971","lng":"89.21371","tags":[]},"8714":{"published":true,"country":"BD","admin1_code":"83","admin2_code":"5076","name":"P\u0101bna","ascii_name":"Pabna","lat":"24.00644","lng":"89.2372","tags":[]},"8715":{"published":true,"country":"BD","admin1_code":"81","admin2_code":"3093","name":"T\u0101ng\u0101il","ascii_name":"Tangail","lat":"24.24984","lng":"89.91655","tags":[]},"8716":{"published":true,"country":"BD","admin1_code":"83","admin2_code":"5010","name":"Bogra","ascii_name":"Bogra","lat":"24.85098","lng":"89.37108","tags":[]},"8718":{"published":true,"country":"BD","admin1_code":"83","admin2_code":"5070","name":"Naw\u0101bganj","ascii_name":"Nawabganj","lat":"24.59025","lng":"88.27444","tags":[]},"8720":{"published":true,"country":"BD","admin1_code":"H","admin2_code":"3089","name":"Sherpur","ascii_name":"Sherpur","lat":"25.01881","lng":"90.01751","tags":[]},"8725":{"published":true,"country":"BD","admin1_code":"87","admin2_code":"5573","name":"Saidpur","ascii_name":"Saidpur","lat":"25.77769","lng":"88.89169","tags":[]},"8726":{"published":true,"country":"BD","admin1_code":"83","admin2_code":"5081","name":"Puthia","ascii_name":"Puthia","lat":"24.36537","lng":"88.83431","tags":[]},"8727":{"published":true,"country":"BD","admin1_code":"83","admin2_code":"5069","name":"Natore","ascii_name":"Natore","lat":"24.41112","lng":"88.98673","tags":[]},"8735":{"published":true,"country":"BD","admin1_code":"81","admin2_code":"3026","name":"Paltan","ascii_name":"Paltan","lat":"23.73625","lng":"90.41426","tags":[]},"9152":{"published":true,"country":"BE","admin1_code":"BRU","admin2_code":"BRU","name":"Schaerbeek","ascii_name":"Schaerbeek","lat":"50.86935","lng":"4.37737","tags":[]},"9436":{"published":true,"country":"BE","admin1_code":"WAL","admin2_code":"WNA","name":"Namur","ascii_name":"Namur","lat":"50.4669","lng":"4.86746","tags":[]},"9627":{"published":true,"country":"BE","admin1_code":"WAL","admin2_code":"WLG","name":"Li\u00e8ge","ascii_name":"Liege","lat":"50.63373","lng":"5.56749","tags":[]},"9980":{"published":true,"country":"BE","admin1_code":"VLG","admin2_code":"VOV","name":"Gent","ascii_name":"Gent","lat":"51.05","lng":"3.71667","tags":[]},"10207":{"published":true,"country":"BE","admin1_code":"WAL","admin2_code":"WHT","name":"Charleroi","ascii_name":"Charleroi","lat":"50.41136","lng":"4.44448","tags":[]},"10232":{"published":true,"country":"BE","admin1_code":"BRU","admin2_code":"BRU","name":"Brussels","ascii_name":"Brussels","lat":"50.85045","lng":"4.34878","tags":[]},"10236":{"published":true,"country":"BE","admin1_code":"VLG","admin2_code":"VWV","name":"Brugge","ascii_name":"Brugge","lat":"51.20892","lng":"3.22424","tags":[]},"10435":{"published":true,"country":"BE","admin1_code":"VLG","admin2_code":"VAN","name":"Antwerpen","ascii_name":"Antwerpen","lat":"51.22047","lng":"4.40026","tags":[]},"10446":{"published":true,"country":"BE","admin1_code":"BRU","admin2_code":"BRU","name":"Anderlecht","ascii_name":"Anderlecht","lat":"50.83619","lng":"4.31454","tags":[]},"10505":{"published":true,"country":"BF","admin1_code":"03","admin2_code":"53","name":"Ouagadougou","ascii_name":"Ouagadougou","lat":"12.36566","lng":"-1.53388","tags":[]},"10545":{"published":true,"country":"BF","admin1_code":"09","admin2_code":"51","name":"Bobo-Dioulasso","ascii_name":"Bobo-Dioulasso","lat":"11.17715","lng":"-4.2979","tags":[]},"10578":{"published":true,"country":"BG","admin1_code":"61","admin2_code":"VAR06","name":"Varna","ascii_name":"Varna","lat":"43.21667","lng":"27.91667","tags":[]},"10606":{"published":true,"country":"BG","admin1_code":"59","admin2_code":"SZR31","name":"Stara Zagora","ascii_name":"Stara Zagora","lat":"42.43278","lng":"25.64194","tags":[]},"10612":{"published":true,"country":"BG","admin1_code":"42","admin2_code":"SOF46","name":"Sofia","ascii_name":"Sofia","lat":"42.69751","lng":"23.32415","tags":[]},"10637":{"published":true,"country":"BG","admin1_code":"53","admin2_code":"RSE27","name":"Ruse","ascii_name":"Ruse","lat":"43.84872","lng":"25.9534","tags":[]},"10659":{"published":true,"country":"BG","admin1_code":"51","admin2_code":"PDV22","name":"Plovdiv","ascii_name":"Plovdiv","lat":"42.15","lng":"24.75","tags":[]},"10661":{"published":true,"country":"BG","admin1_code":"50","admin2_code":"PVN24","name":"Pleven","ascii_name":"Pleven","lat":"43.41667","lng":"24.61667","tags":[]},"10804":{"published":true,"country":"BG","admin1_code":"39","admin2_code":"BGS04","name":"Burgas","ascii_name":"Burgas","lat":"42.50606","lng":"27.46781","tags":[]},"10853":{"published":true,"country":"BH","admin1_code":"16","admin2_code":"","name":"Manama","ascii_name":"Manama","lat":"26.22787","lng":"50.58565","tags":[]},"10862":{"published":true,"country":"BI","admin1_code":"24","admin2_code":"12237757","name":"Bujumbura","ascii_name":"Bujumbura","lat":"-3.38193","lng":"29.36142","tags":[]},"10885":{"published":true,"country":"BJ","admin1_code":"16","admin2_code":"","name":"Porto-Novo","ascii_name":"Porto-Novo","lat":"6.49646","lng":"2.60359","tags":[]},"10887":{"published":true,"country":"BJ","admin1_code":"10","admin2_code":"","name":"Parakou","ascii_name":"Parakou","lat":"9.33716","lng":"2.63031","tags":[]},"10896":{"published":true,"country":"BJ","admin1_code":"07","admin2_code":"","name":"Kandi","ascii_name":"Kandi","lat":"11.13417","lng":"2.93861","tags":[]},"10903":{"published":true,"country":"BJ","admin1_code":"13","admin2_code":"","name":"Djougou","ascii_name":"Djougou","lat":"9.70853","lng":"1.66598","tags":[]},"10906":{"published":true,"country":"BJ","admin1_code":"14","admin2_code":"","name":"Cotonou","ascii_name":"Cotonou","lat":"6.36536","lng":"2.41833","tags":[]},"10908":{"published":true,"country":"BJ","admin1_code":"18","admin2_code":"7668931","name":"Bohicon","ascii_name":"Bohicon","lat":"7.17826","lng":"2.0667","tags":[]},"10919":{"published":true,"country":"BJ","admin1_code":"09","admin2_code":"7874152","name":"Abomey-Calavi","ascii_name":"Abomey-Calavi","lat":"6.44852","lng":"2.35566","tags":[]},"10959":{"published":true,"country":"BO","admin1_code":"09","admin2_code":"","name":"Tarija","ascii_name":"Tarija","lat":"-21.53549","lng":"-64.72956","tags":[]},"10962":{"published":true,"country":"BO","admin1_code":"01","admin2_code":"","name":"Sucre","ascii_name":"Sucre","lat":"-19.03332","lng":"-65.26274","tags":[]},"10969":{"published":true,"country":"BO","admin1_code":"08","admin2_code":"","name":"Santa Cruz de la Sierra","ascii_name":"Santa Cruz de la Sierra","lat":"-17.78629","lng":"-63.18117","tags":[]},"10980":{"published":true,"country":"BO","admin1_code":"02","admin2_code":"","name":"Sacaba","ascii_name":"Sacaba","lat":"-17.39799","lng":"-66.03825","tags":[]},"10985":{"published":true,"country":"BO","admin1_code":"02","admin2_code":"","name":"Quillacollo","ascii_name":"Quillacollo","lat":"-17.39228","lng":"-66.27838","tags":[]},"10988":{"published":true,"country":"BO","admin1_code":"07","admin2_code":"","name":"Potos\u00ed","ascii_name":"Potosi","lat":"-19.58361","lng":"-65.75306","tags":[]},"10995":{"published":true,"country":"BO","admin1_code":"05","admin2_code":"","name":"Oruro","ascii_name":"Oruro","lat":"-17.98333","lng":"-67.15","tags":[]},"11008":{"published":true,"country":"BO","admin1_code":"04","admin2_code":"","name":"La Paz","ascii_name":"La Paz","lat":"-16.5","lng":"-68.15","tags":[]},"11036":{"published":true,"country":"BO","admin1_code":"02","admin2_code":"","name":"Cochabamba","ascii_name":"Cochabamba","lat":"-17.3895","lng":"-66.1568","tags":[]},"11076":{"published":true,"country":"BR","admin1_code":"30","admin2_code":"2616407","name":"Vit\u00f3ria de Santo Ant\u00e3o","ascii_name":"Vitoria de Santo Antao","lat":"-8.11806","lng":"-35.29139","tags":[]},"11115":{"published":true,"country":"BR","admin1_code":"13","admin2_code":"2112209","name":"Timon","ascii_name":"Timon","lat":"-5.09417","lng":"-42.83667","tags":[]},"11120":{"published":true,"country":"BR","admin1_code":"20","admin2_code":"2211001","name":"Teresina","ascii_name":"Teresina","lat":"-5.08917","lng":"-42.80194","tags":[]},"11138":{"published":true,"country":"BR","admin1_code":"06","admin2_code":"2312908","name":"Sobral","ascii_name":"Sobral","lat":"-3.68611","lng":"-40.34972","tags":[]},"11161":{"published":true,"country":"BR","admin1_code":"13","admin2_code":"2111300","name":"S\u00e3o Lu\u00eds","ascii_name":"Sao Luis","lat":"-2.52972","lng":"-44.30278","tags":[]},"11190":{"published":true,"country":"BR","admin1_code":"17","admin2_code":"2513703","name":"Santa Rita","ascii_name":"Santa Rita","lat":"-7.11389","lng":"-34.97806","tags":[]},"11192":{"published":true,"country":"BR","admin1_code":"16","admin2_code":"1506807","name":"Santar\u00e9m","ascii_name":"Santarem","lat":"-2.44306","lng":"-54.70833","tags":[]},"11220":{"published":true,"country":"BR","admin1_code":"30","admin2_code":"2611606","name":"Recife","ascii_name":"Recife","lat":"-8.05389","lng":"-34.88111","tags":[]},"11259":{"published":true,"country":"BR","admin1_code":"30","admin2_code":"2611101","name":"Petrolina","ascii_name":"Petrolina","lat":"-9.39861","lng":"-40.50083","tags":[]},"11272":{"published":true,"country":"BR","admin1_code":"30","admin2_code":"2610707","name":"Paulista","ascii_name":"Paulista","lat":"-7.94083","lng":"-34.87306","tags":[]},"11281":{"published":true,"country":"BR","admin1_code":"22","admin2_code":"2403251","name":"Parnamirim","ascii_name":"Parnamirim","lat":"-5.91556","lng":"-35.26278","tags":[]},"11282":{"published":true,"country":"BR","admin1_code":"20","admin2_code":"2207702","name":"Parna\u00edba","ascii_name":"Parnaiba","lat":"-2.90472","lng":"-41.77667","tags":[]},"11301":{"published":true,"country":"BR","admin1_code":"30","admin2_code":"2609600","name":"Olinda","ascii_name":"Olinda","lat":"-8.00889","lng":"-34.85528","tags":[]},"11316":{"published":true,"country":"BR","admin1_code":"22","admin2_code":"2408102","name":"Natal","ascii_name":"Natal","lat":"-5.795","lng":"-35.20944","tags":[]},"11333":{"published":true,"country":"BR","admin1_code":"22","admin2_code":"2408003","name":"Mossor\u00f3","ascii_name":"Mossoro","lat":"-5.1875","lng":"-37.34417","tags":[]},"11356":{"published":true,"country":"BR","admin1_code":"06","admin2_code":"2307650","name":"Maracana\u00fa","ascii_name":"Maracanau","lat":"-3.87667","lng":"-38.62556","tags":[]},"11359":{"published":true,"country":"BR","admin1_code":"16","admin2_code":"1504208","name":"Marab\u00e1","ascii_name":"Maraba","lat":"-5.38146","lng":"-49.13232","tags":[]},"11363":{"published":true,"country":"BR","admin1_code":"02","admin2_code":"2704302","name":"Macei\u00f3","ascii_name":"Maceio","lat":"-9.66583","lng":"-35.73528","tags":[]},"11366":{"published":true,"country":"BR","admin1_code":"03","admin2_code":"1600303","name":"Macap\u00e1","ascii_name":"Macapa","lat":"0.03889","lng":"-51.06639","tags":[]},"11388":{"published":true,"country":"BR","admin1_code":"06","admin2_code":"2307304","name":"Juazeiro do Norte","ascii_name":"Juazeiro do Norte","lat":"-7.21306","lng":"-39.31528","tags":[]},"11393":{"published":true,"country":"BR","admin1_code":"17","admin2_code":"2507507","name":"Jo\u00e3o Pessoa","ascii_name":"Joao Pessoa","lat":"-7.115","lng":"-34.86306","tags":[]},"11405":{"published":true,"country":"BR","admin1_code":"30","admin2_code":"2607901","name":"Jaboat\u00e3o","ascii_name":"Jaboatao","lat":"-8.18028","lng":"-35.00139","tags":[]},"11433":{"published":true,"country":"BR","admin1_code":"13","admin2_code":"2105302","name":"Imperatriz","ascii_name":"Imperatriz","lat":"-5.52639","lng":"-47.49167","tags":[]},"11464":{"published":true,"country":"BR","admin1_code":"30","admin2_code":"2606002","name":"Garanhuns","ascii_name":"Garanhuns","lat":"-8.88202","lng":"-36.50216","tags":[]},"11467":{"published":true,"country":"BR","admin1_code":"06","admin2_code":"2304400","name":"Fortaleza","ascii_name":"Fortaleza","lat":"-3.71722","lng":"-38.54306","tags":[]},"11520":{"published":true,"country":"BR","admin1_code":"13","admin2_code":"2103000","name":"Caxias","ascii_name":"Caxias","lat":"-4.85889","lng":"-43.35611","tags":[]},"11521":{"published":true,"country":"BR","admin1_code":"06","admin2_code":"2303709","name":"Caucaia","ascii_name":"Caucaia","lat":"-3.73611","lng":"-38.65306","tags":[]},"11525":{"published":true,"country":"BR","admin1_code":"16","admin2_code":"1502400","name":"Castanhal","ascii_name":"Castanhal","lat":"-1.29389","lng":"-47.92639","tags":[]},"11528":{"published":true,"country":"BR","admin1_code":"30","admin2_code":"2604106","name":"Caruaru","ascii_name":"Caruaru","lat":"-8.28333","lng":"-35.97611","tags":[]},"11550":{"published":true,"country":"BR","admin1_code":"17","admin2_code":"2504009","name":"Campina Grande","ascii_name":"Campina Grande","lat":"-7.23056","lng":"-35.88111","tags":[]},"11562":{"published":true,"country":"BR","admin1_code":"30","admin2_code":"2602902","name":"Cabo","ascii_name":"Cabo","lat":"-8.28333","lng":"-35.03333","tags":[]},"11591":{"published":true,"country":"BR","admin1_code":"16","admin2_code":"1501402","name":"Bel\u00e9m","ascii_name":"Belem","lat":"-1.45583","lng":"-48.50444","tags":[]},"11628":{"published":true,"country":"BR","admin1_code":"02","admin2_code":"2700300","name":"Arapiraca","ascii_name":"Arapiraca","lat":"-9.7525","lng":"-36.66111","tags":[]},"11630":{"published":true,"country":"BR","admin1_code":"31","admin2_code":"1702109","name":"Aragua\u00edna","ascii_name":"Araguaina","lat":"-7.19111","lng":"-48.20722","tags":[]},"11637":{"published":true,"country":"BR","admin1_code":"16","admin2_code":"1500800","name":"Ananindeua","ascii_name":"Ananindeua","lat":"-1.36556","lng":"-48.37222","tags":[]},"11675":{"published":true,"country":"BR","admin1_code":"21","admin2_code":"3306305","name":"Volta Redonda","ascii_name":"Volta Redonda","lat":"-22.52306","lng":"-44.10417","tags":[]},"11676":{"published":true,"country":"BR","admin1_code":"05","admin2_code":"2933307","name":"Vit\u00f3ria da Conquista","ascii_name":"Vitoria da Conquista","lat":"-14.86611","lng":"-40.83944","tags":[]},"11677":{"published":true,"country":"BR","admin1_code":"08","admin2_code":"3205309","name":"Vit\u00f3ria","ascii_name":"Vitoria","lat":"-20.31944","lng":"-40.33778","tags":[]},"11681":{"published":true,"country":"BR","admin1_code":"08","admin2_code":"3205200","name":"Vila Velha","ascii_name":"Vila Velha","lat":"-20.32972","lng":"-40.2925","tags":[]},"11686":{"published":true,"country":"BR","admin1_code":"23","admin2_code":"4323002","name":"Viam\u00e3o","ascii_name":"Viamao","lat":"-30.08111","lng":"-51.02333","tags":[]},"11695":{"published":true,"country":"BR","admin1_code":"27","admin2_code":"3556503","name":"V\u00e1rzea Paulista","ascii_name":"Varzea Paulista","lat":"-23.21139","lng":"-46.82833","tags":[]},"11696":{"published":true,"country":"BR","admin1_code":"14","admin2_code":"5108402","name":"V\u00e1rzea Grande","ascii_name":"Varzea Grande","lat":"-15.64667","lng":"-56.1325","tags":[]},"11698":{"published":true,"country":"BR","admin1_code":"15","admin2_code":"3170701","name":"Varginha","ascii_name":"Varginha","lat":"-21.55139","lng":"-45.43028","tags":[]},"11709":{"published":true,"country":"BR","admin1_code":"23","admin2_code":"4322400","name":"Uruguaiana","ascii_name":"Uruguaiana","lat":"-29.75472","lng":"-57.08833","tags":[]},"11716":{"published":true,"country":"BR","admin1_code":"18","admin2_code":"4128104","name":"Umuarama","ascii_name":"Umuarama","lat":"-23.76639","lng":"-53.325","tags":[]},"11718":{"published":true,"country":"BR","admin1_code":"15","admin2_code":"3170206","name":"Uberl\u00e2ndia","ascii_name":"Uberlandia","lat":"-18.91861","lng":"-48.27722","tags":[]},"11719":{"published":true,"country":"BR","admin1_code":"15","admin2_code":"3170107","name":"Uberaba","ascii_name":"Uberaba","lat":"-19.74833","lng":"-47.93194","tags":[]},"11747":{"published":true,"country":"BR","admin1_code":"18","admin2_code":"4127700","name":"Toledo","ascii_name":"Toledo","lat":"-24.71361","lng":"-53.74306","tags":[]},"11761":{"published":true,"country":"BR","admin1_code":"21","admin2_code":"3305802","name":"Teres\u00f3polis","ascii_name":"Teresopolis","lat":"-22.4167","lng":"-42.97822","tags":[]},"11763":{"published":true,"country":"BR","admin1_code":"15","admin2_code":"3168606","name":"Te\u00f3filo Otoni","ascii_name":"Teofilo Otoni","lat":"-17.8575","lng":"-41.50528","tags":[]},"11766":{"published":true,"country":"BR","admin1_code":"27","admin2_code":"3554102","name":"Taubat\u00e9","ascii_name":"Taubate","lat":"-23.02639","lng":"-45.55528","tags":[]},"11784":{"published":true,"country":"BR","admin1_code":"27","admin2_code":"3552809","name":"Tabo\u00e3o da Serra","ascii_name":"Taboao da Serra","lat":"-23.62611","lng":"-46.79167","tags":[]},"11786":{"published":true,"country":"BR","admin1_code":"27","admin2_code":"3552502","name":"Suzano","ascii_name":"Suzano","lat":"-23.5425","lng":"-46.31083","tags":[]},"11787":{"published":true,"country":"BR","admin1_code":"27","admin2_code":"3552403","name":"Sumar\u00e9","ascii_name":"Sumare","lat":"-22.82194","lng":"-47.26694","tags":[]},"11788":{"published":true,"country":"BR","admin1_code":"27","admin2_code":"3552205","name":"Sorocaba","ascii_name":"Sorocaba","lat":"-23.50167","lng":"-47.45806","tags":[]},"11800":{"published":true,"country":"BR","admin1_code":"15","admin2_code":"3167202","name":"Sete Lagoas","ascii_name":"Sete Lagoas","lat":"-19.46583","lng":"-44.24667","tags":[]},"11807":{"published":true,"country":"BR","admin1_code":"08","admin2_code":"3205002","name":"Serra","ascii_name":"Serra","lat":"-20.12861","lng":"-40.30778","tags":[]},"11819":{"published":true,"country":"BR","admin1_code":"23","admin2_code":"4320008","name":"Sapucaia","ascii_name":"Sapucaia","lat":"-29.83333","lng":"-51.15","tags":[]},"11822":{"published":true,"country":"BR","admin1_code":"27","admin2_code":"3551009","name":"S\u00e3o Vicente","ascii_name":"Sao Vicente","lat":"-23.96306","lng":"-46.39194","tags":[]},"11833":{"published":true,"country":"BR","admin1_code":"27","admin2_code":"","name":"S\u00e3o Paulo","ascii_name":"Sao Paulo","lat":"-23.5475","lng":"-46.63611","tags":[]},"11846":{"published":true,"country":"BR","admin1_code":"23","admin2_code":"4318705","name":"S\u00e3o Leopoldo","ascii_name":"Sao Leopoldo","lat":"-29.76028","lng":"-51.14722","tags":[]},"11847":{"published":true,"country":"BR","admin1_code":"18","admin2_code":"4125506","name":"S\u00e3o Jos\u00e9 dos Pinhais","ascii_name":"Sao Jose dos Pinhais","lat":"-25.5302","lng":"-49.20836","tags":[]},"11848":{"published":true,"country":"BR","admin1_code":"27","admin2_code":"3549904","name":"S\u00e3o Jos\u00e9 dos Campos","ascii_name":"Sao Jose dos Campos","lat":"-23.17944","lng":"-45.88694","tags":[]},"11849":{"published":true,"country":"BR","admin1_code":"27","admin2_code":"3549805","name":"S\u00e3o Jos\u00e9 do Rio Preto","ascii_name":"Sao Jose do Rio Preto","lat":"-20.81972","lng":"-49.37944","tags":[]},"11852":{"published":true,"country":"BR","admin1_code":"26","admin2_code":"4202800","name":"S\u00e3o Jos\u00e9","ascii_name":"Sao Jose","lat":"-28.21171","lng":"-49.1632","tags":[]},"11859":{"published":true,"country":"BR","admin1_code":"21","admin2_code":"3305109","name":"S\u00e3o Jo\u00e3o de Meriti","ascii_name":"Sao Joao de Meriti","lat":"-22.80389","lng":"-43.37222","tags":[]},"11882":{"published":true,"country":"BR","admin1_code":"27","admin2_code":"3548906","name":"S\u00e3o Carlos","ascii_name":"Sao Carlos","lat":"-22.0175","lng":"-47.89083","tags":[]},"11883":{"published":true,"country":"BR","admin1_code":"27","admin2_code":"3548807","name":"S\u00e3o Caetano do Sul","ascii_name":"Sao Caetano do Sul","lat":"-23.62306","lng":"-46.55111","tags":[]},"11885":{"published":true,"country":"BR","admin1_code":"27","admin2_code":"3548708","name":"S\u00e3o Bernardo do Campo","ascii_name":"Sao Bernardo do Campo","lat":"-23.69389","lng":"-46.565","tags":[]},"11888":{"published":true,"country":"BR","admin1_code":"27","admin2_code":"3548500","name":"Santos","ascii_name":"Santos","lat":"-23.96083","lng":"-46.33361","tags":[]},"11900":{"published":true,"country":"BR","admin1_code":"27","admin2_code":"3547809","name":"Santo Andr\u00e9","ascii_name":"Santo Andre","lat":"-23.66389","lng":"-46.53833","tags":[]},"11920":{"published":true,"country":"BR","admin1_code":"23","admin2_code":"4316907","name":"Santa Maria","ascii_name":"Santa Maria","lat":"-29.68417","lng":"-53.80694","tags":[]},"11921":{"published":true,"country":"BR","admin1_code":"15","admin2_code":"3157807","name":"Santa Luzia","ascii_name":"Santa Luzia","lat":"-19.76972","lng":"-43.85139","tags":[]},"11929":{"published":true,"country":"BR","admin1_code":"23","admin2_code":"4316808","name":"Santa Cruz do Sul","ascii_name":"Santa Cruz do Sul","lat":"-29.7175","lng":"-52.42583","tags":[]},"11935":{"published":true,"country":"BR","admin1_code":"27","admin2_code":"3545803","name":"Santa B\u00e1rbara d'Oeste","ascii_name":"Santa Barbara d'Oeste","lat":"-22.75361","lng":"-47.41361","tags":[]},"11938":{"published":true,"country":"BR","admin1_code":"05","admin2_code":"2927408","name":"Salvador","ascii_name":"Salvador","lat":"-12.97111","lng":"-38.51083","tags":[]},"11949":{"published":true,"country":"BR","admin1_code":"14","admin2_code":"5107602","name":"Rondon\u00f3polis","ascii_name":"Rondonopolis","lat":"-16.47083","lng":"-54.63556","tags":[]},"11954":{"published":true,"country":"BR","admin1_code":"29","admin2_code":"5218805","name":"Rio Verde","ascii_name":"Rio Verde","lat":"-17.79806","lng":"-50.92806","tags":[]},"11967":{"published":true,"country":"BR","admin1_code":"23","admin2_code":"4315602","name":"Rio Grande","ascii_name":"Rio Grande","lat":"-32.035","lng":"-52.09861","tags":[]},"11969":{"published":true,"country":"BR","admin1_code":"21","admin2_code":"3304557","name":"Rio de Janeiro","ascii_name":"Rio de Janeiro","lat":"-22.90642","lng":"-43.18223","tags":[]},"11973":{"published":true,"country":"BR","admin1_code":"27","admin2_code":"3543907","name":"Rio Claro","ascii_name":"Rio Claro","lat":"-22.41139","lng":"-47.56139","tags":[]},"11980":{"published":true,"country":"BR","admin1_code":"27","admin2_code":"3543402","name":"Ribeir\u00e3o Preto","ascii_name":"Ribeirao Preto","lat":"-21.1775","lng":"-47.81028","tags":[]},"11981":{"published":true,"country":"BR","admin1_code":"27","admin2_code":"3543303","name":"Ribeir\u00e3o Pires","ascii_name":"Ribeirao Pires","lat":"-23.71056","lng":"-46.41333","tags":[]},"11982":{"published":true,"country":"BR","admin1_code":"15","admin2_code":"3154606","name":"Ribeir\u00e3o das Neves","ascii_name":"Ribeirao das Neves","lat":"-19.76694","lng":"-44.08667","tags":[]},"11995":{"published":true,"country":"BR","admin1_code":"21","admin2_code":"3304201","name":"Resende","ascii_name":"Resende","lat":"-22.46889","lng":"-44.44667","tags":[]},"12004":{"published":true,"country":"BR","admin1_code":"21","admin2_code":"3304144","name":"Queimados","ascii_name":"Queimados","lat":"-22.71611","lng":"-43.55528","tags":[]},"12014":{"published":true,"country":"BR","admin1_code":"27","admin2_code":"3541406","name":"Presidente Prudente","ascii_name":"Presidente Prudente","lat":"-22.12556","lng":"-51.38889","tags":[]},"12019":{"published":true,"country":"BR","admin1_code":"27","admin2_code":"3541000","name":"Praia Grande","ascii_name":"Praia Grande","lat":"-24.00583","lng":"-46.40278","tags":[]},"12023":{"published":true,"country":"BR","admin1_code":"15","admin2_code":"3152501","name":"Pouso Alegre","ascii_name":"Pouso Alegre","lat":"-22.23","lng":"-45.93639","tags":[]},"12026":{"published":true,"country":"BR","admin1_code":"05","admin2_code":"2925303","name":"Porto Seguro","ascii_name":"Porto Seguro","lat":"-16.44972","lng":"-39.06472","tags":[]},"12034":{"published":true,"country":"BR","admin1_code":"23","admin2_code":"4314902","name":"Porto Alegre","ascii_name":"Porto Alegre","lat":"-30.03283","lng":"-51.23019","tags":[]},"12047":{"published":true,"country":"BR","admin1_code":"18","admin2_code":"4119905","name":"Ponta Grossa","ascii_name":"Ponta Grossa","lat":"-25.095","lng":"-50.16194","tags":[]},"12052":{"published":true,"country":"BR","admin1_code":"15","admin2_code":"3151800","name":"Po\u00e7os de Caldas","ascii_name":"Pocos de Caldas","lat":"-21.78778","lng":"-46.56139","tags":[]},"12055":{"published":true,"country":"BR","admin1_code":"27","admin2_code":"3539806","name":"Po\u00e1","ascii_name":"Poa","lat":"-23.52806","lng":"-46.34472","tags":[]},"12075":{"published":true,"country":"BR","admin1_code":"27","admin2_code":"3538709","name":"Piracicaba","ascii_name":"Piracicaba","lat":"-22.72528","lng":"-47.64917","tags":[]},"12086":{"published":true,"country":"BR","admin1_code":"27","admin2_code":"3538006","name":"Pindamonhangaba","ascii_name":"Pindamonhangaba","lat":"-22.92389","lng":"-45.46167","tags":[]},"12090":{"published":true,"country":"BR","admin1_code":"21","admin2_code":"3303906","name":"Petr\u00f3polis","ascii_name":"Petropolis","lat":"-22.505","lng":"-43.17861","tags":[]},"12098":{"published":true,"country":"BR","admin1_code":"23","admin2_code":"4314407","name":"Pelotas","ascii_name":"Pelotas","lat":"-31.76997","lng":"-52.34101","tags":[]},"12109":{"published":true,"country":"BR","admin1_code":"15","admin2_code":"3148004","name":"Patos de Minas","ascii_name":"Patos de Minas","lat":"-18.57889","lng":"-46.51806","tags":[]},"12114":{"published":true,"country":"BR","admin1_code":"23","admin2_code":"4314100","name":"Passo Fundo","ascii_name":"Passo Fundo","lat":"-28.26278","lng":"-52.40667","tags":[]},"12126":{"published":true,"country":"BR","admin1_code":"18","admin2_code":"4118204","name":"Paranagu\u00e1","ascii_name":"Paranagua","lat":"-25.51626","lng":"-48.52537","tags":[]},"12150":{"published":true,"country":"BR","admin1_code":"26","admin2_code":"4211900","name":"Palho\u00e7a","ascii_name":"Palhoca","lat":"-27.64528","lng":"-48.66778","tags":[]},"12162":{"published":true,"country":"BR","admin1_code":"27","admin2_code":"3534401","name":"Osasco","ascii_name":"Osasco","lat":"-23.5325","lng":"-46.79167","tags":[]},"12173":{"published":true,"country":"BR","admin1_code":"23","admin2_code":"4313409","name":"Novo Hamburgo","ascii_name":"Novo Hamburgo","lat":"-29.67833","lng":"-51.13056","tags":[]},"12184":{"published":true,"country":"BR","admin1_code":"21","admin2_code":"3303500","name":"Nova Igua\u00e7u","ascii_name":"Nova Iguacu","lat":"-22.75917","lng":"-43.45111","tags":[]},"12186":{"published":true,"country":"BR","admin1_code":"21","admin2_code":"3303401","name":"Nova Friburgo","ascii_name":"Nova Friburgo","lat":"-22.28194","lng":"-42.53111","tags":[]},"12189":{"published":true,"country":"BR","admin1_code":"28","admin2_code":"2804805","name":"Nossa Senhora do Socorro","ascii_name":"Nossa Senhora do Socorro","lat":"-10.855","lng":"-37.12611","tags":[]},"12194":{"published":true,"country":"BR","admin1_code":"21","admin2_code":"3303302","name":"Niter\u00f3i","ascii_name":"Niteroi","lat":"-22.88333","lng":"-43.10361","tags":[]},"12196":{"published":true,"country":"BR","admin1_code":"21","admin2_code":"3303203","name":"Nil\u00f3polis","ascii_name":"Nilopolis","lat":"-22.8075","lng":"-43.41389","tags":[]},"12223":{"published":true,"country":"BR","admin1_code":"15","admin2_code":"3143302","name":"Montes Claros","ascii_name":"Montes Claros","lat":"-16.735","lng":"-43.86167","tags":[]},"12239":{"published":true,"country":"BR","admin1_code":"27","admin2_code":"3530706","name":"Mogi Gua\u00e7u","ascii_name":"Mogi Guacu","lat":"-22.3677","lng":"-46.94552","tags":[]},"12240":{"published":true,"country":"BR","admin1_code":"27","admin2_code":"3530607","name":"Mogi das Cruzes","ascii_name":"Mogi das Cruzes","lat":"-23.52278","lng":"-46.18833","tags":[]},"12259":{"published":true,"country":"BR","admin1_code":"27","admin2_code":"3529401","name":"Mau\u00e1","ascii_name":"Maua","lat":"-23.66778","lng":"-46.46139","tags":[]},"12272":{"published":true,"country":"BR","admin1_code":"18","admin2_code":"4115200","name":"Maring\u00e1","ascii_name":"Maringa","lat":"-23.42528","lng":"-51.93861","tags":[]},"12273":{"published":true,"country":"BR","admin1_code":"27","admin2_code":"3529005","name":"Mar\u00edlia","ascii_name":"Marilia","lat":"-22.21389","lng":"-49.94583","tags":[]},"12305":{"published":true,"country":"BR","admin1_code":"21","admin2_code":"3302403","name":"Maca\u00e9","ascii_name":"Macae","lat":"-22.38484","lng":"-41.78324","tags":[]},"12306":{"published":true,"country":"BR","admin1_code":"29","admin2_code":"5212501","name":"Luzi\u00e2nia","ascii_name":"Luziania","lat":"-16.2525","lng":"-47.95028","tags":[]},"12312":{"published":true,"country":"BR","admin1_code":"18","admin2_code":"4113700","name":"Londrina","ascii_name":"Londrina","lat":"-23.31028","lng":"-51.16278","tags":[]},"12316":{"published":true,"country":"BR","admin1_code":"08","admin2_code":"3203205","name":"Linhares","ascii_name":"Linhares","lat":"-19.39111","lng":"-40.07222","tags":[]},"12317":{"published":true,"country":"BR","admin1_code":"27","admin2_code":"3526902","name":"Limeira","ascii_name":"Limeira","lat":"-22.56472","lng":"-47.40167","tags":[]},"12332":{"published":true,"country":"BR","admin1_code":"26","admin2_code":"4209300","name":"Lages","ascii_name":"Lages","lat":"-27.81611","lng":"-50.32611","tags":[]},"12346":{"published":true,"country":"BR","admin1_code":"27","admin2_code":"3525904","name":"Jundia\u00ed","ascii_name":"Jundiai","lat":"-23.18639","lng":"-46.88417","tags":[]},"12348":{"published":true,"country":"BR","admin1_code":"15","admin2_code":"3136702","name":"Juiz de Fora","ascii_name":"Juiz de Fora","lat":"-21.76417","lng":"-43.35028","tags":[]},"12351":{"published":true,"country":"BR","admin1_code":"26","admin2_code":"4209102","name":"Joinville","ascii_name":"Joinville","lat":"-26.30444","lng":"-48.84556","tags":[]},"12363":{"published":true,"country":"BR","admin1_code":"05","admin2_code":"2918001","name":"Jequi\u00e9","ascii_name":"Jequie","lat":"-13.85875","lng":"-40.08512","tags":[]},"12364":{"published":true,"country":"BR","admin1_code":"27","admin2_code":"3525300","name":"Ja\u00fa","ascii_name":"Jau","lat":"-22.29639","lng":"-48.55778","tags":[]},"12370":{"published":true,"country":"BR","admin1_code":"26","admin2_code":"4208906","name":"Jaragu\u00e1 do Sul","ascii_name":"Jaragua do Sul","lat":"-26.48611","lng":"-49.06667","tags":[]},"12376":{"published":true,"country":"BR","admin1_code":"27","admin2_code":"3525003","name":"Jandira","ascii_name":"Jandira","lat":"-23.5275","lng":"-46.9025","tags":[]},"12391":{"published":true,"country":"BR","admin1_code":"27","admin2_code":"3524402","name":"Jacare\u00ed","ascii_name":"Jacarei","lat":"-23.30528","lng":"-45.96583","tags":[]},"12402":{"published":true,"country":"BR","admin1_code":"27","admin2_code":"3523909","name":"Itu","ascii_name":"Itu","lat":"-23.26417","lng":"-47.29917","tags":[]},"12416":{"published":true,"country":"BR","admin1_code":"27","admin2_code":"3523107","name":"Itaquaquecetuba","ascii_name":"Itaquaquecetuba","lat":"-23.48611","lng":"-46.34833","tags":[]},"12424":{"published":true,"country":"BR","admin1_code":"27","admin2_code":"3522505","name":"Itapevi","ascii_name":"Itapevi","lat":"-23.54889","lng":"-46.93417","tags":[]},"12426":{"published":true,"country":"BR","admin1_code":"27","admin2_code":"3522307","name":"Itapetininga","ascii_name":"Itapetininga","lat":"-23.59167","lng":"-48.05306","tags":[]},"12432":{"published":true,"country":"BR","admin1_code":"27","admin2_code":"3522208","name":"Itapecerica da Serra","ascii_name":"Itapecerica da Serra","lat":"-23.71694","lng":"-46.84917","tags":[]},"12448":{"published":true,"country":"BR","admin1_code":"26","admin2_code":"4208203","name":"Itaja\u00ed","ascii_name":"Itajai","lat":"-26.90778","lng":"-48.66194","tags":[]},"12450":{"published":true,"country":"BR","admin1_code":"21","admin2_code":"3302007","name":"Itagua\u00ed","ascii_name":"Itaguai","lat":"-22.85222","lng":"-43.77528","tags":[]},"12455":{"published":true,"country":"BR","admin1_code":"05","admin2_code":"2914802","name":"Itabuna","ascii_name":"Itabuna","lat":"-14.78556","lng":"-39.28028","tags":[]},"12456":{"published":true,"country":"BR","admin1_code":"21","admin2_code":"3301900","name":"Itabora\u00ed","ascii_name":"Itaborai","lat":"-22.74444","lng":"-42.85944","tags":[]},"12477":{"published":true,"country":"BR","admin1_code":"15","admin2_code":"3131307","name":"Ipatinga","ascii_name":"Ipatinga","lat":"-19.46833","lng":"-42.53667","tags":[]},"12484":{"published":true,"country":"BR","admin1_code":"27","admin2_code":"3520509","name":"Indaiatuba","ascii_name":"Indaiatuba","lat":"-23.08842","lng":"-47.2119","tags":[]},"12488":{"published":true,"country":"BR","admin1_code":"05","admin2_code":"2913606","name":"Ilh\u00e9us","ascii_name":"Ilheus","lat":"-14.79364","lng":"-39.03949","tags":[]},"12507":{"published":true,"country":"BR","admin1_code":"15","admin2_code":"3129806","name":"Ibirit\u00e9","ascii_name":"Ibirite","lat":"-20.02194","lng":"-44.05889","tags":[]},"12522":{"published":true,"country":"BR","admin1_code":"27","admin2_code":"3519071","name":"Hortol\u00e2ndia","ascii_name":"Hortolandia","lat":"-22.85833","lng":"-47.22","tags":[]},"12530":{"published":true,"country":"BR","admin1_code":"27","admin2_code":"3518800","name":"Guarulhos","ascii_name":"Guarulhos","lat":"-23.46278","lng":"-46.53333","tags":[]},"12531":{"published":true,"country":"BR","admin1_code":"27","admin2_code":"3518701","name":"Guaruj\u00e1","ascii_name":"Guaruja","lat":"-23.99306","lng":"-46.25639","tags":[]},"12534":{"published":true,"country":"BR","admin1_code":"27","admin2_code":"3518404","name":"Guaratinguet\u00e1","ascii_name":"Guaratingueta","lat":"-22.81639","lng":"-45.1925","tags":[]},"12538":{"published":true,"country":"BR","admin1_code":"18","admin2_code":"4109401","name":"Guarapuava","ascii_name":"Guarapuava","lat":"-25.39048","lng":"-51.46541","tags":[]},"12539":{"published":true,"country":"BR","admin1_code":"08","admin2_code":"3202405","name":"Guarapari","ascii_name":"Guarapari","lat":"-20.67182","lng":"-40.50196","tags":[]},"12552":{"published":true,"country":"BR","admin1_code":"23","admin2_code":"4309209","name":"Gravata\u00ed","ascii_name":"Gravatai","lat":"-29.94218","lng":"-50.99278","tags":[]},"12553":{"published":true,"country":"BR","admin1_code":"15","admin2_code":"3127701","name":"Governador Valadares","ascii_name":"Governador Valadares","lat":"-18.85111","lng":"-41.94944","tags":[]},"12557":{"published":true,"country":"BR","admin1_code":"29","admin2_code":"5208707","name":"Goi\u00e2nia","ascii_name":"Goiania","lat":"-16.67861","lng":"-49.25389","tags":[]},"12570":{"published":true,"country":"BR","admin1_code":"27","admin2_code":"3516408","name":"Franco da Rocha","ascii_name":"Franco da Rocha","lat":"-23.32167","lng":"-46.72694","tags":[]},"12572":{"published":true,"country":"BR","admin1_code":"27","admin2_code":"3516309","name":"Francisco Morato","ascii_name":"Francisco Morato","lat":"-23.28167","lng":"-46.74528","tags":[]},"12574":{"published":true,"country":"BR","admin1_code":"27","admin2_code":"3516200","name":"Franca","ascii_name":"Franca","lat":"-20.53861","lng":"-47.40083","tags":[]},"12575":{"published":true,"country":"BR","admin1_code":"18","admin2_code":"4108304","name":"Foz do Igua\u00e7u","ascii_name":"Foz do Iguacu","lat":"-25.54778","lng":"-54.58806","tags":[]},"12581":{"published":true,"country":"BR","admin1_code":"26","admin2_code":"4205407","name":"Florian\u00f3polis","ascii_name":"Florianopolis","lat":"-27.59667","lng":"-48.54917","tags":[]},"12585":{"published":true,"country":"BR","admin1_code":"27","admin2_code":"3515707","name":"Ferraz de Vasconcelos","ascii_name":"Ferraz de Vasconcelos","lat":"-23.54083","lng":"-46.36861","tags":[]},"12587":{"published":true,"country":"BR","admin1_code":"05","admin2_code":"2910800","name":"Feira de Santana","ascii_name":"Feira de Santana","lat":"-12.26667","lng":"-38.96667","tags":[]},"12592":{"published":true,"country":"BR","admin1_code":"05","admin2_code":"2910727","name":"Eun\u00e1polis","ascii_name":"Eunapolis","lat":"-16.3775","lng":"-39.58028","tags":[]},"12602":{"published":true,"country":"BR","admin1_code":"15","admin2_code":"3124104","name":"Esmeraldas","ascii_name":"Esmeraldas","lat":"-19.7625","lng":"-44.31389","tags":[]},"12610":{"published":true,"country":"BR","admin1_code":"27","admin2_code":"3515004","name":"Embu","ascii_name":"Embu","lat":"-23.64889","lng":"-46.85222","tags":[]},"12616":{"published":true,"country":"BR","admin1_code":"21","admin2_code":"3301702","name":"Duque de Caxias","ascii_name":"Duque de Caxias","lat":"-22.78556","lng":"-43.31167","tags":[]},"12618":{"published":true,"country":"BR","admin1_code":"11","admin2_code":"5003702","name":"Dourados","ascii_name":"Dourados","lat":"-22.22111","lng":"-54.80556","tags":[]},"12624":{"published":true,"country":"BR","admin1_code":"15","admin2_code":"3122306","name":"Divin\u00f3polis","ascii_name":"Divinopolis","lat":"-20.14355","lng":"-44.89065","tags":[]},"12628":{"published":true,"country":"BR","admin1_code":"27","admin2_code":"3513801","name":"Diadema","ascii_name":"Diadema","lat":"-23.68611","lng":"-46.62278","tags":[]},"12632":{"published":true,"country":"BR","admin1_code":"18","admin2_code":"4106902","name":"Curitiba","ascii_name":"Curitiba","lat":"-25.42778","lng":"-49.27306","tags":[]},"12634":{"published":true,"country":"BR","admin1_code":"14","admin2_code":"5103403","name":"Cuiab\u00e1","ascii_name":"Cuiaba","lat":"-15.59611","lng":"-56.09667","tags":[]},"12635":{"published":true,"country":"BR","admin1_code":"27","admin2_code":"3513504","name":"Cubat\u00e3o","ascii_name":"Cubatao","lat":"-23.895","lng":"-46.42528","tags":[]},"12644":{"published":true,"country":"BR","admin1_code":"26","admin2_code":"4204608","name":"Crici\u00fama","ascii_name":"Criciuma","lat":"-28.6775","lng":"-49.36972","tags":[]},"12647":{"published":true,"country":"BR","admin1_code":"27","admin2_code":"3513009","name":"Cotia","ascii_name":"Cotia","lat":"-23.60389","lng":"-46.91917","tags":[]},"12656":{"published":true,"country":"BR","admin1_code":"15","admin2_code":"3119401","name":"Coronel Fabriciano","ascii_name":"Coronel Fabriciano","lat":"-19.51861","lng":"-42.62889","tags":[]},"12665":{"published":true,"country":"BR","admin1_code":"15","admin2_code":"3118601","name":"Contagem","ascii_name":"Contagem","lat":"-19.93167","lng":"-44.05361","tags":[]},"12667":{"published":true,"country":"BR","admin1_code":"15","admin2_code":"3118304","name":"Conselheiro Lafaiete","ascii_name":"Conselheiro Lafaiete","lat":"-20.66028","lng":"-43.78611","tags":[]},"12683":{"published":true,"country":"BR","admin1_code":"18","admin2_code":"4105805","name":"Colombo","ascii_name":"Colombo","lat":"-25.29167","lng":"-49.22417","tags":[]},"12684":{"published":true,"country":"BR","admin1_code":"08","admin2_code":"3201506","name":"Colatina","ascii_name":"Colatina","lat":"-19.53944","lng":"-40.63056","tags":[]},"12698":{"published":true,"country":"BR","admin1_code":"26","admin2_code":"4204202","name":"Chapec\u00f3","ascii_name":"Chapeco","lat":"-27.09639","lng":"-52.61833","tags":[]},"12707":{"published":true,"country":"BR","admin1_code":"23","admin2_code":"4305108","name":"Caxias do Sul","ascii_name":"Caxias do Sul","lat":"-29.16806","lng":"-51.17944","tags":[]},"12711":{"published":true,"country":"BR","admin1_code":"27","admin2_code":"3511102","name":"Catanduva","ascii_name":"Catanduva","lat":"-21.13778","lng":"-48.97278","tags":[]},"12721":{"published":true,"country":"BR","admin1_code":"18","admin2_code":"4104808","name":"Cascavel","ascii_name":"Cascavel","lat":"-24.95583","lng":"-53.45528","tags":[]},"12736":{"published":true,"country":"BR","admin1_code":"27","admin2_code":"3510609","name":"Carapicu\u00edba","ascii_name":"Carapicuiba","lat":"-23.52272","lng":"-46.835","tags":[]},"12754":{"published":true,"country":"BR","admin1_code":"23","admin2_code":"4304606","name":"Canoas","ascii_name":"Canoas","lat":"-29.91778","lng":"-51.18361","tags":[]},"12769":{"published":true,"country":"BR","admin1_code":"21","admin2_code":"3301009","name":"Campos dos Goytacazes","ascii_name":"Campos dos Goytacazes","lat":"-21.75227","lng":"-41.33044","tags":[]},"12772":{"published":true,"country":"BR","admin1_code":"11","admin2_code":"5002704","name":"Campo Grande","ascii_name":"Campo Grande","lat":"-20.44278","lng":"-54.64639","tags":[]},"12778":{"published":true,"country":"BR","admin1_code":"27","admin2_code":"3509502","name":"Campinas","ascii_name":"Campinas","lat":"-22.90556","lng":"-47.06083","tags":[]},"12791":{"published":true,"country":"BR","admin1_code":"05","admin2_code":"2905701","name":"Cama\u00e7ari","ascii_name":"Camacari","lat":"-12.6975","lng":"-38.32417","tags":[]},"12805":{"published":true,"country":"BR","admin1_code":"08","admin2_code":"3201209","name":"Cachoeiro de Itapemirim","ascii_name":"Cachoeiro de Itapemirim","lat":"-20.84889","lng":"-41.11278","tags":[]},"12806":{"published":true,"country":"BR","admin1_code":"23","admin2_code":"4303103","name":"Cachoeirinha","ascii_name":"Cachoeirinha","lat":"-29.95111","lng":"-51.09389","tags":[]},"12815":{"published":true,"country":"BR","admin1_code":"21","admin2_code":"3300704","name":"Cabo Frio","ascii_name":"Cabo Frio","lat":"-22.88717","lng":"-42.02622","tags":[]},"12831":{"published":true,"country":"BR","admin1_code":"07","admin2_code":"5300108","name":"Bras\u00edlia","ascii_name":"Brasilia","lat":"-15.77972","lng":"-47.92972","tags":[]},"12832":{"published":true,"country":"BR","admin1_code":"27","admin2_code":"3507605","name":"Bragan\u00e7a Paulista","ascii_name":"Braganca Paulista","lat":"-22.9527","lng":"-46.54418","tags":[]},"12834":{"published":true,"country":"BR","admin1_code":"27","admin2_code":"3507506","name":"Botucatu","ascii_name":"Botucatu","lat":"-22.88583","lng":"-48.445","tags":[]},"12853":{"published":true,"country":"BR","admin1_code":"26","admin2_code":"4202404","name":"Blumenau","ascii_name":"Blumenau","lat":"-26.91944","lng":"-49.06611","tags":[]},"12855":{"published":true,"country":"BR","admin1_code":"27","admin2_code":"3506508","name":"Birigui","ascii_name":"Birigui","lat":"-21.28861","lng":"-50.34","tags":[]},"12858":{"published":true,"country":"BR","admin1_code":"15","admin2_code":"3106705","name":"Betim","ascii_name":"Betim","lat":"-19.96778","lng":"-44.19833","tags":[]},"12863":{"published":true,"country":"BR","admin1_code":"15","admin2_code":"3106200","name":"Belo Horizonte","ascii_name":"Belo Horizonte","lat":"-19.92083","lng":"-43.93778","tags":[]},"12865":{"published":true,"country":"BR","admin1_code":"21","admin2_code":"3300456","name":"Belford Roxo","ascii_name":"Belford Roxo","lat":"-22.76417","lng":"-43.39944","tags":[]},"12870":{"published":true,"country":"BR","admin1_code":"27","admin2_code":"3506003","name":"Bauru","ascii_name":"Bauru","lat":"-22.31472","lng":"-49.06056","tags":[]},"12874":{"published":true,"country":"BR","admin1_code":"27","admin2_code":"3505708","name":"Barueri","ascii_name":"Barueri","lat":"-23.51056","lng":"-46.87611","tags":[]},"12879":{"published":true,"country":"BR","admin1_code":"27","admin2_code":"3505500","name":"Barretos","ascii_name":"Barretos","lat":"-20.55722","lng":"-48.56778","tags":[]},"12881":{"published":true,"country":"BR","admin1_code":"05","admin2_code":"2903201","name":"Barreiras","ascii_name":"Barreiras","lat":"-12.15278","lng":"-44.99","tags":[]},"12883":{"published":true,"country":"BR","admin1_code":"21","admin2_code":"3300407","name":"Barra Mansa","ascii_name":"Barra Mansa","lat":"-22.54417","lng":"-44.17139","tags":[]},"12893":{"published":true,"country":"BR","admin1_code":"15","admin2_code":"3105608","name":"Barbacena","ascii_name":"Barbacena","lat":"-21.22583","lng":"-43.77361","tags":[]},"12906":{"published":true,"country":"BR","admin1_code":"27","admin2_code":"3504107","name":"Atibaia","ascii_name":"Atibaia","lat":"-23.11694","lng":"-46.55028","tags":[]},"12909":{"published":true,"country":"BR","admin1_code":"27","admin2_code":"3504008","name":"Assis","ascii_name":"Assis","lat":"-22.66167","lng":"-50.41222","tags":[]},"12927":{"published":true,"country":"BR","admin1_code":"18","admin2_code":"4101804","name":"Arauc\u00e1ria","ascii_name":"Araucaria","lat":"-25.59306","lng":"-49.41028","tags":[]},"12929":{"published":true,"country":"BR","admin1_code":"21","admin2_code":"3300209","name":"Araruama","ascii_name":"Araruama","lat":"-22.87278","lng":"-42.34306","tags":[]},"12930":{"published":true,"country":"BR","admin1_code":"27","admin2_code":"3503307","name":"Araras","ascii_name":"Araras","lat":"-22.35694","lng":"-47.38417","tags":[]},"12931":{"published":true,"country":"BR","admin1_code":"27","admin2_code":"3503208","name":"Araraquara","ascii_name":"Araraquara","lat":"-21.79444","lng":"-48.17556","tags":[]},"12941":{"published":true,"country":"BR","admin1_code":"27","admin2_code":"3502804","name":"Ara\u00e7atuba","ascii_name":"Aracatuba","lat":"-21.20889","lng":"-50.43278","tags":[]},"12942":{"published":true,"country":"BR","admin1_code":"28","admin2_code":"2800308","name":"Aracaju","ascii_name":"Aracaju","lat":"-10.91111","lng":"-37.07167","tags":[]},"12945":{"published":true,"country":"BR","admin1_code":"18","admin2_code":"4101408","name":"Apucarana","ascii_name":"Apucarana","lat":"-23.55083","lng":"-51.46083","tags":[]},"12953":{"published":true,"country":"BR","admin1_code":"21","admin2_code":"3300100","name":"Angra dos Reis","ascii_name":"Angra dos Reis","lat":"-23.00667","lng":"-44.31806","tags":[]},"12959":{"published":true,"country":"BR","admin1_code":"29","admin2_code":"5201108","name":"An\u00e1polis","ascii_name":"Anapolis","lat":"-16.32667","lng":"-48.95278","tags":[]},"12964":{"published":true,"country":"BR","admin1_code":"27","admin2_code":"3501608","name":"Americana","ascii_name":"Americana","lat":"-22.73917","lng":"-47.33139","tags":[]},"12984":{"published":true,"country":"BR","admin1_code":"05","admin2_code":"2900702","name":"Alagoinhas","ascii_name":"Alagoinhas","lat":"-12.13556","lng":"-38.41917","tags":[]},"12998":{"published":true,"country":"BR","admin1_code":"23","admin2_code":"4309308","name":"Gua\u00edba","ascii_name":"Guaiba","lat":"-30.11389","lng":"-51.325","tags":[]},"12999":{"published":true,"country":"BR","admin1_code":"31","admin2_code":"1721000","name":"Palmas","ascii_name":"Palmas","lat":"-10.16745","lng":"-48.32766","tags":[]},"13012":{"published":true,"country":"BR","admin1_code":"01","admin2_code":"1200401","name":"Rio Branco","ascii_name":"Rio Branco","lat":"-9.97472","lng":"-67.81","tags":[]},"13014":{"published":true,"country":"BR","admin1_code":"24","admin2_code":"1100205","name":"Porto Velho","ascii_name":"Porto Velho","lat":"-8.76194","lng":"-63.90389","tags":[]},"13021":{"published":true,"country":"BR","admin1_code":"04","admin2_code":"1302603","name":"Manaus","ascii_name":"Manaus","lat":"-3.10194","lng":"-60.025","tags":[]},"13036":{"published":true,"country":"BR","admin1_code":"25","admin2_code":"1400100","name":"Boa Vista","ascii_name":"Boa Vista","lat":"2.81972","lng":"-60.67333","tags":[]},"13052":{"published":true,"country":"BR","admin1_code":"24","admin2_code":"1100122","name":"Ji Paran\u00e1","ascii_name":"Ji Parana","lat":"-10.88528","lng":"-61.95167","tags":[]},"13058":{"published":true,"country":"BR","admin1_code":"29","admin2_code":"5201405","name":"Aparecida de Goi\u00e2nia","ascii_name":"Aparecida de Goiania","lat":"-16.82333","lng":"-49.24389","tags":[]},"13063":{"published":true,"country":"BR","admin1_code":"30","admin2_code":"2607901","name":"Jaboat\u00e3o dos Guararapes","ascii_name":"Jaboatao dos Guararapes","lat":"-8.11278","lng":"-35.01472","tags":[]},"13065":{"published":true,"country":"BR","admin1_code":"05","admin2_code":"2919207","name":"Lauro de Freitas","ascii_name":"Lauro de Freitas","lat":"-12.89444","lng":"-38.32722","tags":[]},"13070":{"published":true,"country":"BR","admin1_code":"16","admin2_code":"1505536","name":"Parauapebas","ascii_name":"Parauapebas","lat":"-6.0675","lng":"-49.90222","tags":[]},"13072":{"published":true,"country":"BR","admin1_code":"18","admin2_code":"4119152","name":"Pinhais","ascii_name":"Pinhais","lat":"-25.44472","lng":"-49.1925","tags":[]},"13077":{"published":true,"country":"BR","admin1_code":"05","admin2_code":"2930709","name":"Sim\u00f5es Filho","ascii_name":"Simoes Filho","lat":"-12.78444","lng":"-38.40389","tags":[]},"13078":{"published":true,"country":"BR","admin1_code":"14","admin2_code":"5107909","name":"Sinop","ascii_name":"Sinop","lat":"-11.86417","lng":"-55.5025","tags":[]},"13102":{"published":true,"country":"BR","admin1_code":"07","admin2_code":"5300108","name":"Planaltina","ascii_name":"Planaltina","lat":"-15.61791","lng":"-47.64874","tags":[]},"13106":{"published":true,"country":"BR","admin1_code":"23","admin2_code":"4300604","name":"Alvorada","ascii_name":"Alvorada","lat":"-29.9904","lng":"-51.0781","tags":[]},"13111":{"published":true,"country":"BS","admin1_code":"23","admin2_code":"","name":"Nassau","ascii_name":"Nassau","lat":"25.05823","lng":"-77.34306","tags":[]},"13232":{"published":true,"country":"BW","admin1_code":"14","admin2_code":"","name":"Gaborone","ascii_name":"Gaborone","lat":"-24.65451","lng":"25.90859","tags":[]},"13262":{"published":true,"country":"BY","admin1_code":"07","admin2_code":"","name":"Vitebsk","ascii_name":"Vitebsk","lat":"55.1904","lng":"30.2049","tags":[]},"13307":{"published":true,"country":"BY","admin1_code":"05","admin2_code":"","name":"Salihorsk","ascii_name":"Salihorsk","lat":"52.7876","lng":"27.5415","tags":[]},"13321":{"published":true,"country":"BY","admin1_code":"01","admin2_code":"","name":"Pinsk","ascii_name":"Pinsk","lat":"52.1229","lng":"26.0951","tags":[]},"13333":{"published":true,"country":"BY","admin1_code":"07","admin2_code":"","name":"Orsha","ascii_name":"Orsha","lat":"54.5081","lng":"30.4172","tags":[]},"13343":{"published":true,"country":"BY","admin1_code":"07","admin2_code":"","name":"Navapolatsk","ascii_name":"Navapolatsk","lat":"55.5318","lng":"28.5987","tags":[]},"13355":{"published":true,"country":"BY","admin1_code":"04","admin2_code":"","name":"Minsk","ascii_name":"Minsk","lat":"53.9","lng":"27.56667","tags":[]},"13358":{"published":true,"country":"BY","admin1_code":"02","admin2_code":"","name":"Mazyr","ascii_name":"Mazyr","lat":"52.0495","lng":"29.2456","tags":[]},"13362":{"published":true,"country":"BY","admin1_code":"05","admin2_code":"","name":"Maladzie\u010dna","ascii_name":"Maladziecna","lat":"54.3167","lng":"26.854","tags":[]},"13363":{"published":true,"country":"BY","admin1_code":"06","admin2_code":"","name":"Mahilyow","ascii_name":"Mahilyow","lat":"53.9168","lng":"30.3449","tags":[]},"13376":{"published":true,"country":"BY","admin1_code":"03","admin2_code":"","name":"Lida","ascii_name":"Lida","lat":"53.88333","lng":"25.29972","tags":[]},"13420":{"published":true,"country":"BY","admin1_code":"03","admin2_code":"","name":"Hrodna","ascii_name":"Hrodna","lat":"53.6884","lng":"23.8258","tags":[]},"13422":{"published":true,"country":"BY","admin1_code":"02","admin2_code":"","name":"Homyel'","ascii_name":"Homyel'","lat":"52.4345","lng":"30.9754","tags":[]},"13458":{"published":true,"country":"BY","admin1_code":"01","admin2_code":"","name":"Brest","ascii_name":"Brest","lat":"52.09755","lng":"23.68775","tags":[]},"13472":{"published":true,"country":"BY","admin1_code":"05","admin2_code":"629799","name":"Barysaw","ascii_name":"Barysaw","lat":"54.2279","lng":"28.505","tags":[]},"13473":{"published":true,"country":"BY","admin1_code":"01","admin2_code":"","name":"Baranovichi","ascii_name":"Baranovichi","lat":"53.1327","lng":"26.0139","tags":[]},"13475":{"published":true,"country":"BY","admin1_code":"06","admin2_code":"","name":"Babruysk","ascii_name":"Babruysk","lat":"53.1384","lng":"29.2214","tags":[]},"13533":{"published":true,"country":"CA","admin1_code":"02","admin2_code":"5909","name":"Abbotsford","ascii_name":"Abbotsford","lat":"49.05798","lng":"-122.25257","tags":[]},"13539":{"published":true,"country":"CA","admin1_code":"08","admin2_code":"","name":"Ajax","ascii_name":"Ajax","lat":"43.85012","lng":"-79.03288","tags":[]},"13573":{"published":true,"country":"CA","admin1_code":"08","admin2_code":"","name":"Barrie","ascii_name":"Barrie","lat":"44.40011","lng":"-79.66634","tags":[]},"13614":{"published":true,"country":"CA","admin1_code":"08","admin2_code":"","name":"Brampton","ascii_name":"Brampton","lat":"43.68341","lng":"-79.76633","tags":[]},"13627":{"published":true,"country":"CA","admin1_code":"08","admin2_code":"","name":"Burlington","ascii_name":"Burlington","lat":"43.38621","lng":"-79.83713","tags":[]},"13628":{"published":true,"country":"CA","admin1_code":"02","admin2_code":"5915","name":"Burnaby","ascii_name":"Burnaby","lat":"49.26636","lng":"-122.95263","tags":[]},"13632":{"published":true,"country":"CA","admin1_code":"01","admin2_code":"","name":"Calgary","ascii_name":"Calgary","lat":"51.05011","lng":"-114.08529","tags":[]},"13634":{"published":true,"country":"CA","admin1_code":"08","admin2_code":"","name":"Cambridge","ascii_name":"Cambridge","lat":"43.3601","lng":"-80.31269","tags":[]},"13694":{"published":true,"country":"CA","admin1_code":"02","admin2_code":"5915","name":"Coquitlam","ascii_name":"Coquitlam","lat":"49.2846","lng":"-122.78217","tags":[]},"13711":{"published":true,"country":"CA","admin1_code":"07","admin2_code":"","name":"Dartmouth","ascii_name":"Dartmouth","lat":"44.67134","lng":"-63.57719","tags":[]},"13720":{"published":true,"country":"CA","admin1_code":"02","admin2_code":"5915","name":"Delta","ascii_name":"Delta","lat":"49.14399","lng":"-122.9068","tags":[]},"13743":{"published":true,"country":"CA","admin1_code":"01","admin2_code":"","name":"Edmonton","ascii_name":"Edmonton","lat":"53.55014","lng":"-113.46871","tags":[]},"13789":{"published":true,"country":"CA","admin1_code":"10","admin2_code":"07","name":"Gatineau","ascii_name":"Gatineau","lat":"45.47723","lng":"-75.70164","tags":[]},"13807":{"published":true,"country":"CA","admin1_code":"08","admin2_code":"","name":"Greater Sudbury","ascii_name":"Greater Sudbury","lat":"46.49","lng":"-80.99001","tags":[]},"13816":{"published":true,"country":"CA","admin1_code":"08","admin2_code":"3523","name":"Guelph","ascii_name":"Guelph","lat":"43.54594","lng":"-80.25599","tags":[]},"13818":{"published":true,"country":"CA","admin1_code":"08","admin2_code":"","name":"Hamilton","ascii_name":"Hamilton","lat":"43.25011","lng":"-79.84963","tags":[]},"13868":{"published":true,"country":"CA","admin1_code":"02","admin2_code":"5935","name":"Kelowna","ascii_name":"Kelowna","lat":"49.88307","lng":"-119.48568","tags":[]},"13883":{"published":true,"country":"CA","admin1_code":"08","admin2_code":"","name":"Kingston","ascii_name":"Kingston","lat":"44.22976","lng":"-76.48098","tags":[]},"13886":{"published":true,"country":"CA","admin1_code":"08","admin2_code":"3530","name":"Kitchener","ascii_name":"Kitchener","lat":"43.42537","lng":"-80.5112","tags":[]},"13927":{"published":true,"country":"CA","admin1_code":"10","admin2_code":"13","name":"Laval","ascii_name":"Laval","lat":"45.56995","lng":"-73.692","tags":[]},"13949":{"published":true,"country":"CA","admin1_code":"08","admin2_code":"","name":"London","ascii_name":"London","lat":"42.98339","lng":"-81.23304","tags":[]},"13950":{"published":true,"country":"CA","admin1_code":"10","admin2_code":"16","name":"Longueuil","ascii_name":"Longueuil","lat":"45.53121","lng":"-73.51806","tags":[]},"13976":{"published":true,"country":"CA","admin1_code":"08","admin2_code":"","name":"Markham","ascii_name":"Markham","lat":"43.86682","lng":"-79.2663","tags":[]},"14004":{"published":true,"country":"CA","admin1_code":"08","admin2_code":"3524","name":"Milton","ascii_name":"Milton","lat":"43.51681","lng":"-79.88294","tags":[]},"14010":{"published":true,"country":"CA","admin1_code":"08","admin2_code":"","name":"Mississauga","ascii_name":"Mississauga","lat":"43.5789","lng":"-79.6583","tags":[]},"14013":{"published":true,"country":"CA","admin1_code":"04","admin2_code":"1307","name":"Moncton","ascii_name":"Moncton","lat":"46.09454","lng":"-64.7965","tags":[]},"14016":{"published":true,"country":"CA","admin1_code":"10","admin2_code":"06","name":"Montr\u00e9al","ascii_name":"Montreal","lat":"45.50884","lng":"-73.58781","tags":[]},"14046":{"published":true,"country":"CA","admin1_code":"08","admin2_code":"3506","name":"Nepean","ascii_name":"Nepean","lat":"45.33619","lng":"-75.7225","tags":[]},"14076":{"published":true,"country":"CA","admin1_code":"08","admin2_code":"","name":"Oakville","ascii_name":"Oakville","lat":"43.45011","lng":"-79.68292","tags":[]},"14088":{"published":true,"country":"CA","admin1_code":"08","admin2_code":"","name":"Oshawa","ascii_name":"Oshawa","lat":"43.90012","lng":"-78.84957","tags":[]},"14090":{"published":true,"country":"CA","admin1_code":"08","admin2_code":"3506","name":"Ottawa","ascii_name":"Ottawa","lat":"45.41117","lng":"-75.69812","tags":[]},"14169":{"published":true,"country":"CA","admin1_code":"11","admin2_code":"","name":"Regina","ascii_name":"Regina","lat":"50.45008","lng":"-104.6178","tags":[]},"14178":{"published":true,"country":"CA","admin1_code":"02","admin2_code":"5915","name":"Richmond","ascii_name":"Richmond","lat":"49.17003","lng":"-123.13683","tags":[]},"14179":{"published":true,"country":"CA","admin1_code":"08","admin2_code":"3519","name":"Richmond Hill","ascii_name":"Richmond Hill","lat":"43.87111","lng":"-79.43725","tags":[]},"14201":{"published":true,"country":"CA","admin1_code":"10","admin2_code":"02","name":"Saguenay","ascii_name":"Saguenay","lat":"48.41675","lng":"-71.06573","tags":[]},"14302":{"published":true,"country":"CA","admin1_code":"11","admin2_code":"","name":"Saskatoon","ascii_name":"Saskatoon","lat":"52.13238","lng":"-106.66892","tags":[]},"14318":{"published":true,"country":"CA","admin1_code":"10","admin2_code":"05","name":"Sherbrooke","ascii_name":"Sherbrooke","lat":"45.40008","lng":"-71.89908","tags":[]},"14342":{"published":true,"country":"CA","admin1_code":"08","admin2_code":"3526","name":"St. Catharines","ascii_name":"St. Catharines","lat":"43.17126","lng":"-79.24267","tags":[]},"14360":{"published":true,"country":"CA","admin1_code":"02","admin2_code":"5915","name":"Surrey","ascii_name":"Surrey","lat":"49.10635","lng":"-122.82509","tags":[]},"14375":{"published":true,"country":"CA","admin1_code":"10","admin2_code":"14","name":"Terrebonne","ascii_name":"Terrebonne","lat":"45.70004","lng":"-73.64732","tags":[]},"14382":{"published":true,"country":"CA","admin1_code":"08","admin2_code":"3558","name":"Thunder Bay","ascii_name":"Thunder Bay","lat":"48.38202","lng":"-89.25018","tags":[]},"14389":{"published":true,"country":"CA","admin1_code":"08","admin2_code":"","name":"Toronto","ascii_name":"Toronto","lat":"43.70011","lng":"-79.4163","tags":[]},"14392":{"published":true,"country":"CA","admin1_code":"10","admin2_code":"04","name":"Trois-Rivi\u00e8res","ascii_name":"Trois-Rivieres","lat":"46.34515","lng":"-72.5477","tags":[]},"14408":{"published":true,"country":"CA","admin1_code":"02","admin2_code":"5915","name":"Vancouver","ascii_name":"Vancouver","lat":"49.24966","lng":"-123.11934","tags":[]},"14413":{"published":true,"country":"CA","admin1_code":"08","admin2_code":"","name":"Vaughan","ascii_name":"Vaughan","lat":"43.8361","lng":"-79.49827","tags":[]},"14421":{"published":true,"country":"CA","admin1_code":"02","admin2_code":"5917","name":"Victoria","ascii_name":"Victoria","lat":"48.4359","lng":"-123.35155","tags":[]},"14441":{"published":true,"country":"CA","admin1_code":"08","admin2_code":"","name":"Waterloo","ascii_name":"Waterloo","lat":"43.4668","lng":"-80.51639","tags":[]},"14470":{"published":true,"country":"CA","admin1_code":"08","admin2_code":"","name":"Windsor","ascii_name":"Windsor","lat":"42.30008","lng":"-83.01654","tags":[]},"14473":{"published":true,"country":"CA","admin1_code":"03","admin2_code":"","name":"Winnipeg","ascii_name":"Winnipeg","lat":"49.8844","lng":"-97.14704","tags":[]},"14484":{"published":true,"country":"CA","admin1_code":"07","admin2_code":"1209","name":"Halifax","ascii_name":"Halifax","lat":"44.6464","lng":"-63.57291","tags":[]},"14488":{"published":true,"country":"CA","admin1_code":"10","admin2_code":"03","name":"Qu\u00e9bec","ascii_name":"Quebec","lat":"46.81228","lng":"-71.21454","tags":[]},"14490":{"published":true,"country":"CA","admin1_code":"10","admin2_code":"12","name":"L\u00e9vis","ascii_name":"Levis","lat":"46.80326","lng":"-71.17793","tags":[]},"14496":{"published":true,"country":"CA","admin1_code":"07","admin2_code":"1217","name":"Sydney","ascii_name":"Sydney","lat":"46.1351","lng":"-60.1831","tags":[]},"14534":{"published":true,"country":"CA","admin1_code":"02","admin2_code":"","name":"Okanagan","ascii_name":"Okanagan","lat":"50.36386","lng":"-119.34997","tags":[]},"14546":{"published":true,"country":"CA","admin1_code":"02","admin2_code":"5915","name":"Ladner","ascii_name":"Ladner","lat":"49.08938","lng":"-123.08241","tags":[]},"14733":{"published":true,"country":"CD","admin1_code":"12","admin2_code":"08","name":"Uvira","ascii_name":"Uvira","lat":"-3.39534","lng":"29.13779","tags":[]},"14734":{"published":true,"country":"CD","admin1_code":"18","admin2_code":"8335011","name":"Tshikapa","ascii_name":"Tshikapa","lat":"-6.41621","lng":"20.79995","tags":[]},"14736":{"published":true,"country":"CD","admin1_code":"21","admin2_code":"03","name":"Mwene-Ditu","ascii_name":"Mwene-Ditu","lat":"-7.00906","lng":"23.45278","tags":[]},"14738":{"published":true,"country":"CD","admin1_code":"04","admin2_code":"01","name":"Mbuji-Mayi","ascii_name":"Mbuji-Mayi","lat":"-6.13603","lng":"23.58979","tags":[]},"14745":{"published":true,"country":"CD","admin1_code":"30","admin2_code":"01","name":"Kisangani","ascii_name":"Kisangani","lat":"0.51528","lng":"25.19099","tags":[]},"14746":{"published":true,"country":"CD","admin1_code":"10","admin2_code":"01","name":"Kindu","ascii_name":"Kindu","lat":"-2.94373","lng":"25.92237","tags":[]},"14748":{"published":true,"country":"CD","admin1_code":"23","admin2_code":"9179898","name":"Kananga","ascii_name":"Kananga","lat":"-5.89624","lng":"22.41659","tags":[]},"14751":{"published":true,"country":"CD","admin1_code":"29","admin2_code":"02","name":"Kalemie","ascii_name":"Kalemie","lat":"-5.94749","lng":"29.19471","tags":[]},"14755":{"published":true,"country":"CD","admin1_code":"16","admin2_code":"01","name":"Isiro","ascii_name":"Isiro","lat":"2.77391","lng":"27.61603","tags":[]},"14756":{"published":true,"country":"CD","admin1_code":"18","admin2_code":"05","name":"Ilebo","ascii_name":"Ilebo","lat":"-4.33111","lng":"20.58638","tags":[]},"14757":{"published":true,"country":"CD","admin1_code":"11","admin2_code":"01","name":"Goma","ascii_name":"Goma","lat":"-1.67409","lng":"29.22845","tags":[]},"14759":{"published":true,"country":"CD","admin1_code":"21","admin2_code":"06","name":"Gandajika","ascii_name":"Gandajika","lat":"-6.74504","lng":"23.95328","tags":[]},"14761":{"published":true,"country":"CD","admin1_code":"11","admin2_code":"33","name":"Butembo","ascii_name":"Butembo","lat":"0.14164","lng":"29.29117","tags":[]},"14766":{"published":true,"country":"CD","admin1_code":"12","admin2_code":"01","name":"Bukavu","ascii_name":"Bukavu","lat":"-2.49077","lng":"28.84281","tags":[]},"14771":{"published":true,"country":"CD","admin1_code":"11","admin2_code":"09","name":"Beni","ascii_name":"Beni","lat":"0.49113","lng":"29.47306","tags":[]},"14774":{"published":true,"country":"CD","admin1_code":"14","admin2_code":"01","name":"Lubumbashi","ascii_name":"Lubumbashi","lat":"-11.66089","lng":"27.47938","tags":[]},"14775":{"published":true,"country":"CD","admin1_code":"14","admin2_code":"06","name":"Likasi","ascii_name":"Likasi","lat":"-10.98303","lng":"26.7384","tags":[]},"14776":{"published":true,"country":"CD","admin1_code":"22","admin2_code":"922772","name":"Kolwezi","ascii_name":"Kolwezi","lat":"-10.71484","lng":"25.46674","tags":[]},"14784":{"published":true,"country":"CD","admin1_code":"02","admin2_code":"01","name":"Mbandaka","ascii_name":"Mbandaka","lat":"0.04865","lng":"18.26034","tags":[]},"14785":{"published":true,"country":"CD","admin1_code":"08","admin2_code":"01","name":"Matadi","ascii_name":"Matadi","lat":"-5.83861","lng":"13.46306","tags":[]},"14789":{"published":true,"country":"CD","admin1_code":"06","admin2_code":"00","name":"Kinshasa","ascii_name":"Kinshasa","lat":"-4.32758","lng":"15.31357","tags":[]},"14790":{"published":true,"country":"CD","admin1_code":"20","admin2_code":"03","name":"Kikwit","ascii_name":"Kikwit","lat":"-5.04098","lng":"18.81619","tags":[]},"14794":{"published":true,"country":"CD","admin1_code":"28","admin2_code":"02","name":"Gemena","ascii_name":"Gemena","lat":"3.25651","lng":"19.77234","tags":[]},"14797":{"published":true,"country":"CD","admin1_code":"08","admin2_code":"02","name":"Boma","ascii_name":"Boma","lat":"-5.85098","lng":"13.05364","tags":[]},"14799":{"published":true,"country":"CD","admin1_code":"20","admin2_code":"01","name":"Bandundu","ascii_name":"Bandundu","lat":"-3.31687","lng":"17.38063","tags":[]},"14800":{"published":true,"country":"CD","admin1_code":"06","admin2_code":"00","name":"Masina","ascii_name":"Masina","lat":"-4.38361","lng":"15.39139","tags":[]},"14832":{"published":true,"country":"CF","admin1_code":"17","admin2_code":"7731896","name":"Bimbo","ascii_name":"Bimbo","lat":"4.25671","lng":"18.41583","tags":[]},"14836":{"published":true,"country":"CF","admin1_code":"18","admin2_code":"7731897","name":"Bangui","ascii_name":"Bangui","lat":"4.36122","lng":"18.55496","tags":[]},"14839":{"published":true,"country":"CG","admin1_code":"15","admin2_code":"","name":"Pointe-Noire","ascii_name":"Pointe-Noire","lat":"-4.77609","lng":"11.86352","tags":[]},"14845":{"published":true,"country":"CG","admin1_code":"07","admin2_code":"","name":"Dolisie","ascii_name":"Dolisie","lat":"-4.19834","lng":"12.66664","tags":[]},"14854":{"published":true,"country":"CG","admin1_code":"12","admin2_code":"","name":"Brazzaville","ascii_name":"Brazzaville","lat":"-4.26613","lng":"15.28318","tags":[]},"14860":{"published":true,"country":"CH","admin1_code":"ZH","admin2_code":"112","name":"Z\u00fcrich","ascii_name":"Zurich","lat":"47.36667","lng":"8.55","tags":[]},"15441":{"published":true,"country":"CH","admin1_code":"VD","admin2_code":"2225","name":"Lausanne","ascii_name":"Lausanne","lat":"46.516","lng":"6.63282","tags":[]},"15606":{"published":true,"country":"CH","admin1_code":"GE","admin2_code":"2500","name":"Gen\u00e8ve","ascii_name":"Geneve","lat":"46.20222","lng":"6.14569","tags":[]},"15851":{"published":true,"country":"CH","admin1_code":"BE","admin2_code":"246","name":"Bern","ascii_name":"Bern","lat":"46.94809","lng":"7.44744","tags":[]},"15872":{"published":true,"country":"CH","admin1_code":"BS","admin2_code":"1200","name":"Basel","ascii_name":"Basel","lat":"47.55839","lng":"7.57327","tags":[]},"16274":{"published":true,"country":"CI","admin1_code":"81","admin2_code":"","name":"Yamoussoukro","ascii_name":"Yamoussoukro","lat":"6.82055","lng":"-5.27674","tags":[]},"16296":{"published":true,"country":"CI","admin1_code":"76","admin2_code":"","name":"San-P\u00e9dro","ascii_name":"San-Pedro","lat":"4.74851","lng":"-6.6363","tags":[]},"16311":{"published":true,"country":"CI","admin1_code":"78","admin2_code":"","name":"Man","ascii_name":"Man","lat":"7.41251","lng":"-7.55383","tags":[]},"16319":{"published":true,"country":"CI","admin1_code":"87","admin2_code":"11153169","name":"Korhogo","ascii_name":"Korhogo","lat":"9.45803","lng":"-5.62961","tags":[]},"16335":{"published":true,"country":"CI","admin1_code":"95","admin2_code":"","name":"Gagnoa","ascii_name":"Gagnoa","lat":"6.13193","lng":"-5.9506","tags":[]},"16341":{"published":true,"country":"CI","admin1_code":"95","admin2_code":"","name":"Divo","ascii_name":"Divo","lat":"5.83739","lng":"-5.35723","tags":[]},"16348":{"published":true,"country":"CI","admin1_code":"96","admin2_code":"","name":"Daloa","ascii_name":"Daloa","lat":"6.87735","lng":"-6.45022","tags":[]},"16354":{"published":true,"country":"CI","admin1_code":"90","admin2_code":"","name":"Bouak\u00e9","ascii_name":"Bouake","lat":"7.69385","lng":"-5.03031","tags":[]},"16370":{"published":true,"country":"CI","admin1_code":"93","admin2_code":"","name":"Anyama","ascii_name":"Anyama","lat":"5.49462","lng":"-4.05183","tags":[]},"16378":{"published":true,"country":"CI","admin1_code":"93","admin2_code":"","name":"Abobo","ascii_name":"Abobo","lat":"5.41613","lng":"-4.0159","tags":[]},"16379":{"published":true,"country":"CI","admin1_code":"93","admin2_code":"","name":"Abidjan","ascii_name":"Abidjan","lat":"5.35444","lng":"-4.00167","tags":[]},"16380":{"published":true,"country":"CI","admin1_code":"94","admin2_code":"11153078","name":"Abengourou","ascii_name":"Abengourou","lat":"6.72972","lng":"-3.49639","tags":[]},"16387":{"published":true,"country":"CL","admin1_code":"01","admin2_code":"51","name":"Vi\u00f1a del Mar","ascii_name":"Vina del Mar","lat":"-33.02457","lng":"-71.55183","tags":[]},"16393":{"published":true,"country":"CL","admin1_code":"01","admin2_code":"51","name":"Valpara\u00edso","ascii_name":"Valparaiso","lat":"-33.036","lng":"-71.62963","tags":[]},"16395":{"published":true,"country":"CL","admin1_code":"17","admin2_code":"141","name":"Valdivia","ascii_name":"Valdivia","lat":"-39.81422","lng":"-73.24589","tags":[]},"16400":{"published":true,"country":"CL","admin1_code":"04","admin2_code":"91","name":"Temuco","ascii_name":"Temuco","lat":"-38.73965","lng":"-72.59842","tags":[]},"16402":{"published":true,"country":"CL","admin1_code":"06","admin2_code":"81","name":"Talcahuano","ascii_name":"Talcahuano","lat":"-36.72494","lng":"-73.11684","tags":[]},"16403":{"published":true,"country":"CL","admin1_code":"11","admin2_code":"71","name":"Talca","ascii_name":"Talca","lat":"-35.4264","lng":"-71.65542","tags":[]},"16407":{"published":true,"country":"CL","admin1_code":"12","admin2_code":"131","name":"Santiago","ascii_name":"Santiago","lat":"-33.45694","lng":"-70.64827","tags":[]},"16414":{"published":true,"country":"CL","admin1_code":"12","admin2_code":"134","name":"San Bernardo","ascii_name":"San Bernardo","lat":"-33.59217","lng":"-70.6996","tags":[]},"16420":{"published":true,"country":"CL","admin1_code":"08","admin2_code":"61","name":"Rancagua","ascii_name":"Rancagua","lat":"-34.17083","lng":"-70.74444","tags":[]},"16422":{"published":true,"country":"CL","admin1_code":"01","admin2_code":"58","name":"Quilpu\u00e9","ascii_name":"Quilpue","lat":"-33.04752","lng":"-71.44249","tags":[]},"16427":{"published":true,"country":"CL","admin1_code":"10","admin2_code":"121","name":"Punta Arenas","ascii_name":"Punta Arenas","lat":"-53.15483","lng":"-70.91129","tags":[]},"16432":{"published":true,"country":"CL","admin1_code":"14","admin2_code":"101","name":"Puerto Montt","ascii_name":"Puerto Montt","lat":"-41.4693","lng":"-72.94237","tags":[]},"16435":{"published":true,"country":"CL","admin1_code":"12","admin2_code":"132","name":"Puente Alto","ascii_name":"Puente Alto","lat":"-33.61169","lng":"-70.57577","tags":[]},"16449":{"published":true,"country":"CL","admin1_code":"14","admin2_code":"103","name":"Osorno","ascii_name":"Osorno","lat":"-40.57395","lng":"-73.13348","tags":[]},"16461":{"published":true,"country":"CL","admin1_code":"06","admin2_code":"83","name":"Los \u00c1ngeles","ascii_name":"Los Angeles","lat":"-37.46973","lng":"-72.35366","tags":[]},"16472":{"published":true,"country":"CL","admin1_code":"07","admin2_code":"41","name":"La Serena","ascii_name":"La Serena","lat":"-29.90453","lng":"-71.24894","tags":[]},"16477":{"published":true,"country":"CL","admin1_code":"15","admin2_code":"11","name":"Iquique","ascii_name":"Iquique","lat":"-20.21326","lng":"-70.15027","tags":[]},"16489":{"published":true,"country":"CL","admin1_code":"11","admin2_code":"73","name":"Curic\u00f3","ascii_name":"Curico","lat":"-34.98279","lng":"-71.23943","tags":[]},"16493":{"published":true,"country":"CL","admin1_code":"07","admin2_code":"41","name":"Coquimbo","ascii_name":"Coquimbo","lat":"-29.95332","lng":"-71.33947","tags":[]},"16494":{"published":true,"country":"CL","admin1_code":"05","admin2_code":"31","name":"Copiap\u00f3","ascii_name":"Copiapo","lat":"-27.36679","lng":"-70.3314","tags":[]},"16496":{"published":true,"country":"CL","admin1_code":"06","admin2_code":"81","name":"Concepci\u00f3n","ascii_name":"Concepcion","lat":"-36.82699","lng":"-73.04977","tags":[]},"16506":{"published":true,"country":"CL","admin1_code":"18","admin2_code":"161","name":"Chill\u00e1n","ascii_name":"Chillan","lat":"-36.60664","lng":"-72.10344","tags":[]},"16521":{"published":true,"country":"CL","admin1_code":"03","admin2_code":"22","name":"Calama","ascii_name":"Calama","lat":"-22.45667","lng":"-68.92371","tags":[]},"16526":{"published":true,"country":"CL","admin1_code":"16","admin2_code":"151","name":"Arica","ascii_name":"Arica","lat":"-18.4746","lng":"-70.29792","tags":[]},"16528":{"published":true,"country":"CL","admin1_code":"03","admin2_code":"21","name":"Antofagasta","ascii_name":"Antofagasta","lat":"-23.65236","lng":"-70.3954","tags":[]},"16531":{"published":true,"country":"CL","admin1_code":"15","admin2_code":"11","name":"Alto Hospicio","ascii_name":"Alto Hospicio","lat":"-20.26871","lng":"-70.1049","tags":[]},"16537":{"published":true,"country":"CL","admin1_code":"12","admin2_code":"131","name":"La Pintana","ascii_name":"La Pintana","lat":"-33.58331","lng":"-70.63419","tags":[]},"16538":{"published":true,"country":"CL","admin1_code":"12","admin2_code":"131","name":"Lo Prado","ascii_name":"Lo Prado","lat":"-33.4443","lng":"-70.72552","tags":[]},"16552":{"published":true,"country":"CM","admin1_code":"11","admin2_code":"","name":"Yaound\u00e9","ascii_name":"Yaounde","lat":"3.86667","lng":"11.51667","tags":[]},"16573":{"published":true,"country":"CM","admin1_code":"05","admin2_code":"","name":"Nkongsamba","ascii_name":"Nkongsamba","lat":"4.9547","lng":"9.9404","tags":[]},"16578":{"published":true,"country":"CM","admin1_code":"10","admin2_code":"","name":"Ngaound\u00e9r\u00e9","ascii_name":"Ngaoundere","lat":"7.32765","lng":"13.58472","tags":[]},"16589":{"published":true,"country":"CM","admin1_code":"12","admin2_code":"","name":"Mokolo","ascii_name":"Mokolo","lat":"10.74244","lng":"13.80227","tags":[]},"16595":{"published":true,"country":"CM","admin1_code":"08","admin2_code":"","name":"Mbouda","ascii_name":"Mbouda","lat":"5.62611","lng":"10.25421","tags":[]},"16602":{"published":true,"country":"CM","admin1_code":"12","admin2_code":"","name":"Maroua","ascii_name":"Maroua","lat":"10.59095","lng":"14.31593","tags":[]},"16606":{"published":true,"country":"CM","admin1_code":"05","admin2_code":"","name":"Loum","ascii_name":"Loum","lat":"4.7182","lng":"9.7351","tags":[]},"16611":{"published":true,"country":"CM","admin1_code":"09","admin2_code":"","name":"Kumba","ascii_name":"Kumba","lat":"4.6363","lng":"9.4469","tags":[]},"16614":{"published":true,"country":"CM","admin1_code":"12","admin2_code":"","name":"Kouss\u00e9ri","ascii_name":"Kousseri","lat":"12.07689","lng":"15.03063","tags":[]},"16621":{"published":true,"country":"CM","admin1_code":"13","admin2_code":"","name":"Garoua","ascii_name":"Garoua","lat":"9.30143","lng":"13.39771","tags":[]},"16629":{"published":true,"country":"CM","admin1_code":"05","admin2_code":"","name":"Ed\u00e9a","ascii_name":"Edea","lat":"3.8","lng":"10.13333","tags":[]},"16633":{"published":true,"country":"CM","admin1_code":"05","admin2_code":"","name":"Douala","ascii_name":"Douala","lat":"4.04827","lng":"9.70428","tags":[]},"16643":{"published":true,"country":"CM","admin1_code":"04","admin2_code":"","name":"Bertoua","ascii_name":"Bertoua","lat":"4.57728","lng":"13.68459","tags":[]},"16659":{"published":true,"country":"CM","admin1_code":"07","admin2_code":"","name":"Bamenda","ascii_name":"Bamenda","lat":"5.9597","lng":"10.14597","tags":[]},"16661":{"published":true,"country":"CM","admin1_code":"08","admin2_code":"","name":"Bafoussam","ascii_name":"Bafoussam","lat":"5.47775","lng":"10.41759","tags":[]},"16703":{"published":true,"country":"CN","admin1_code":"29","admin2_code":"5305","name":"Tengyue","ascii_name":"Tengyue","lat":"24.99492","lng":"98.51276","tags":[]},"16705":{"published":true,"country":"CN","admin1_code":"15","admin2_code":"6209","name":"Jiuquan","ascii_name":"Jiuquan","lat":"39.74318","lng":"98.51736","tags":[]},"16715":{"published":true,"country":"CN","admin1_code":"13","admin2_code":"6531","name":"Shache","ascii_name":"Shache","lat":"38.41667","lng":"77.24056","tags":[]},"16748":{"published":true,"country":"CN","admin1_code":"29","admin2_code":"5331","name":"Mengmao","ascii_name":"Mengmao","lat":"24.00139","lng":"97.86499","tags":[]},"16761":{"published":true,"country":"CN","admin1_code":"14","admin2_code":"5401","name":"Lhasa","ascii_name":"Lhasa","lat":"29.65","lng":"91.1","tags":[]},"16766":{"published":true,"country":"CN","admin1_code":"13","admin2_code":"6531","name":"Kashgar","ascii_name":"Kashgar","lat":"39.47066","lng":"75.98951","tags":[]},"16776":{"published":true,"country":"CN","admin1_code":"15","admin2_code":"6202","name":"Jiayuguan","ascii_name":"Jiayuguan","lat":"39.81121","lng":"98.28618","tags":[]},"16779":{"published":true,"country":"CN","admin1_code":"13","admin2_code":"6532","name":"Hotan","ascii_name":"Hotan","lat":"37.1075","lng":"79.93548","tags":[]},